Latitude,Longitude,STATION_NAME,STATION_CODE,DIVISION,STATE,CATEGORY
17.72220140,83.28926120,VISAKHAPATNAM,VSKP,WAT,ANDHRA PRADESH,A1
17.39242170,78.46899880,HYDERABAD                                         ,HYB ,SC        ,ANDHRA PRADESH,A1
17.39064710,78.50090930,KACHEGUDA,KCG,HYB       ,ANDHRA PRADESH,A1
17.43370900,78.50161440,SECUNDERABAD JN                                   ,SC  ,SC        ,ANDHRA PRADESH,A1
13.62834700,79.41997750,TIRUPATI,TPTY,GTL   ,ANDHRA PRADESH,A1
16.51862490,80.61989770,VIJAYAWADA                                 ,BZA ,BZA       ,ANDHRA PRADESH,A1
26.18254870,91.74974340,GUWAHATI,GHY,LMG,ASSAM,A1
26.15477010,85.90724760,DARBHANGA JN.,DBG,SPJ,BIHAR,A1
24.80324130,84.99970720,GAYA JN.,GYA,MGS,BIHAR,A1
26.12189880,85.37911280,MUZAFFARPUR JN.,MFP,SEE,BIHAR,A1
25.60330280,85.13713700,PATNA JN.,PNBE,DNR,BIHAR,A1
25.24003000,86.98451100,BHAGALPUR ,BGP,MLDT,BIHAR,A1
25.78750720,84.72499340,CHHAPRA JN.,CPR,VARANASI,BIHAR,A1
30.70221910,76.82247010,CHANDIGARH,CDG,UMB,CHANDIGARH,A1
22.05610610,82.17185470,BILASPUR JN,BSP,BSP,CHHATTISGARH,A1
21.25138440,81.62964130,RAIPUR,R,R,CHHATTISGARH,A1
28.64892840,77.31518450,ANAND VIHAR TERMINAL,ANVT,DLI,DELHI,A1
28.66096770,77.22767040,DELHI JN.,DLI,DLI,DELHI,A1
28.58891880,77.25347260,H. NIZAMUDDIN,HNZM,DLI,DELHI,A1
28.64154940,77.22081230,NEW DELHI,NDLS,DLI,DELHI,A1
23.03318150,72.50990500,AHMEDABAD,ADI,AHMEDABAD,GUJARAT,A1
22.31174820,70.80273540,RAJKOT,RJT,RAJKOT,GUJARAT,A1
21.20500000,72.84080000,SURAT,ST,MUMBAI CENTRAL,GUJARAT,A1
22.31077490,73.18093000,VADODARA,BRC,VADODARA,GUJARAT,A1
30.33772190,76.82802300,AMBALA CANTT. JN.,UMB,UMB,HARYANA,A1
32.70552310,74.88066130,JAMMU TAWI,JAT,FZR,JAMMU & KASHMIR,A1
23.79102940,86.42993910,DHANBAD,DHN,DHN,JHARKHAND,A1
22.77590820,86.18926880,TATANAGAR,TATA,CKP,JHARKHAND,A1
12.97812890,77.56956780,BANGALORE CITY,SBC ,SBC,KARNATAKA,A1
13.02375630,77.55073790,YESVANTPUR,YPR ,SBC,KARNATAKA,A1
9.96905560,76.29101130,ERNAKULAM JN                       ,ERS  ,TVC,KERALA,A1
11.24666310,75.78107350,KOZHIKKODE                         ,CLT  ,PGT,KERALA,A1
10.51407670,76.20764780,THRISUR                            ,TCR  ,TVC,KERALA,A1
8.48695720,76.95267740,TIRUVANANTHAPURAM CENTRAL          ,TVC  ,TVC,KERALA,A1
26.21595570,78.18191500,GWALIOR,GWL,JHS,MADHYA PRADESH,A1
23.25540930,77.45259610,BHOPAL,BPL,BPL,MADHYA PRADESH,A1
23.16519570,79.95074700,JABALPUR,JBP,JBP,MADHYA PRADESH,A1
18.93982080,72.83546760,CST MUMBAI,CSTM,BB,MAHARASHTRA,A1
19.01503160,72.84535960,DADAR,DR,BB,MAHARASHTRA,A1
19.23540820,73.13102400,KALYAN,KYN,BB,MAHARASHTRA,A1
19.06914300,72.89227310,LOKMANYA TILAK (T),LTT,BB,MAHARASHTRA,A1
21.15218700,79.08875880,NAGPUR,NGP,NGP,MAHARASHTRA,A1
18.52241510,73.84107170,PUNE,PA,PA,MAHARASHTRA,A1
17.66442330,75.89297020,SOLAPUR,SUR,SUR,MAHARASHTRA,A1
19.18604080,72.97588370,THANE,TNA,BB,MAHARASHTRA,A1
19.06252410,72.84130660,BANDRA TERMINUS,BDTS,MUMBAI CENTRAL,MAHARASHTRA,A1
18.97077140,72.81945320,MUMBAI CENTRAL MAIN,BCT,MUMBAI CENTRAL,MAHARASHTRA,A1
20.26660100,85.84361540,BHUBANESWAR,BBS,KUR,ODISHA,A1
19.81338220,85.83146550,PURI,PURI,KUR,ODISHA,A1
31.63308590,74.86713100,AMRITSAR,ASR,FZR,PUNJAB,A1
30.91212690,75.84822480,LUDHIANA,LDH,FZR,PUNJAB,A1
26.45709460,74.63719620,AJMER,AII,AJMER,RAJASTHAN,A1
26.91915200,75.78888930,JAIPUR,JP,JAIPUR,RAJASTHAN,A1
26.31279700,73.09294500,JODHPUR CANTT,JUCT,JODHPUR,RAJASTHAN,A1
13.08218880,80.27550830,CHENNAI CENTRAL                    ,MAS  ,MAS,TAMIL NADU,A1
13.07787460,80.26161950,CHENNAI EGMORE                     ,MS   ,MAS,TAMIL NADU,A1
10.99591490,76.96774090,COIMBATORE JN                      ,CBE  ,SA,TAMIL NADU,A1
9.92035450,78.11029320,MADURAI JN                         ,MDU  ,MDU,TAMIL NADU,A1
25.27846260,83.11998290,MUGHALSARAI JN.,MGS,MGS,UTTAR PRADESH,A1
27.15781520,77.98992440,AGRA CANTT,AGC  ,AGC,UTTAR PRADESH,A1
25.44567730,81.83024880,ALLAHABAD,ALD,ALD,UTTAR PRADESH,A1
25.44317200,78.55750460,JHANSI,JHS,JHS,UTTAR PRADESH,A1
26.45385500,80.35119460,KANPUR CENTRAL,CNB,ALD,UTTAR PRADESH,A1
27.47948210,77.67365100,MATHURA JN,MTJ       ,AGC,UTTAR PRADESH,A1
26.75952150,83.38175470,GORAKHPUR JN.,GKP,LUCKNOW,UTTAR PRADESH,A1
26.83169980,80.91915050,LUCKNOW JN.,LJN,LUCKNOW,UTTAR PRADESH,A1
28.33713430,79.41082440,BAREILLY,BE,MB,UTTAR PRADESH,A1
26.84669370,80.94616600,LUCKNOW,LKO,LKO,UTTAR PRADESH,A1
25.32742000,82.98605350,VARANASI,BSB,LKO,UTTAR PRADESH,A1
30.31343620,78.03356110,DEHRADUN,DDN,MB,UTTARAKHAND,A1
29.94829980,78.15555240,HARIDWAR,HW,MB,UTTARAKHAND,A1
22.58341260,88.34290240,HOWRAH ,HWH,HWH,WEST BENGAL,A1
22.56733210,88.37086250,SEALDAH  ,SDAH,SDAH,WEST BENGAL,A1
26.68425670,88.44280150,NEW JALPAIGURI,NJP,KIR,WEST BENGAL,A1
22.31492740,87.31053110,KHARAGPUR,KGP,KGP,WEST BENGAL,A1
18.75644000,84.42242300,PALASA,PSA,KUR,ANDHRA PRADESH,A
18.40893900,83.90381800,SRIKAKULAM ROAD,CHE,WAT,ANDHRA PRADESH,A
18.10665760,83.39555060,VIZIANAGARAM,VZM,WAT,ANDHRA PRADESH,A
17.69471100,83.00855600,ANAKAPALLE                                        ,AKP ,BZA       ,ANDHRA PRADESH,A
14.68640930,77.59525270,ANANTAPUR                                        ,ATP ,GTL,ANDHRA PRADESH,A
16.54754120,81.51901170,BHIMAVARAM TOWN                                   ,BVRT,BZA       ,ANDHRA PRADESH,A
15.83134360,80.35438060,CHIRALA                                           ,CLX ,BZA       ,ANDHRA PRADESH,A
14.45165960,78.82923910,CUDDAPAH                                          ,HX  ,GTL,ANDHRA PRADESH,A
16.71805800,81.11957600,ELURU                                             ,EE  ,BZA       ,ANDHRA PRADESH,A
14.14864940,79.84562270,GUDUR JN.                                         ,GDR ,BZA       ,ANDHRA PRADESH,A
15.17552640,77.36671710,GUNTAKAL JN.                                      ,GTL ,GTL,ANDHRA PRADESH,A
16.30052460,80.44273660,GUNTUR JN.                                        ,GNT ,GNT       ,ANDHRA PRADESH,A
16.96745990,82.23337180,KAKINADA TOWN                                     ,CCT ,BZA       ,ANDHRA PRADESH,A
17.97470220,79.51117950,KAZIPET JN.                                       ,KZJ ,SC        ,ANDHRA PRADESH,A
17.24872630,80.13914470,KHAMMAM,KMT,SC        ,ANDHRA PRADESH,A
15.83246640,78.03246830,KURNOOL TOWN                                      ,KRNT,HYB       ,ANDHRA PRADESH,A
17.69040980,83.19437240,MANCHIRYAL                                        ,MCI ,SC        ,ANDHRA PRADESH,A
14.44259870,79.98645600,NELLORE                                           ,NLR ,BZA       ,ANDHRA PRADESH,A
18.67875730,78.10359550,NIZAMABAD                                         ,NZB ,HYB       ,ANDHRA PRADESH,A
15.49756510,80.05706460,ONGOLE                                            ,OGL ,BZA       ,ANDHRA PRADESH,A
16.98427540,81.78385710,RAJAHMUNDRY                                       ,RJY ,BZA       ,ANDHRA PRADESH,A
13.63660280,79.50659220,RENIGUNTA                                         ,RU  ,GTL,ANDHRA PRADESH,A
17.04532240,82.16911890,SAMALKOT JN.                                      ,SLO ,BZA       ,ANDHRA PRADESH,A
16.81020530,81.52661480,TADEPALLIGUDEM                                    ,TDD ,BZA       ,ANDHRA PRADESH,A
16.24209300,80.64063000,TENALI JN.                                        ,TEL ,BZA       ,ANDHRA PRADESH,A
17.35526700,82.54293250,TUNI                                              ,TUNI,BZA       ,ANDHRA PRADESH,A
17.97325200,79.60570800,WARANGAL                                          ,WL  ,SC        ,ANDHRA PRADESH,A
14.16098080,77.75883630,SSP NILAYAM,SSPN,SBC,ANDHRA PRADESH,A
26.50203630,90.96472210,BARPETA ROAD ,BPRD,RNY,ASSAM,A
26.46947940,90.56064570,BONGAIGAON ,BNGN,RNY,ASSAM,A
27.46437530,94.93655350,DIBRUGARH TOWN,DBRT,TSK,ASSAM,A
26.75013900,94.21628270,JORHAT TOWN,JTTN,TSK,ASSAM,A
26.15729500,91.69204530,KAMAKHYA,KYQ,LMG,ASSAM,A
25.75057820,93.17655390,LUMDING,LMG,LMG,ASSAM,A
26.44727850,91.60640990,RANGIYA JN. ,RNY,RNY,ASSAM,A
24.83005350,92.78739550,SILCHAR,SCL,LMG,ASSAM,A
27.47963440,95.33728480,TINSUKIA,TSK,TSK,ASSAM,A
24.85597080,84.32873130,ANUGRAHA NARAYAN ROAD,AUBR,MGS,BIHAR,A
25.54879580,84.66137750,ARA JN.,ARA,DNR,BIHAR,A
25.45587290,85.53260300,BAKHTIYARPUR JN.,BKP,DNR,BIHAR,A
25.46204410,85.98759620,BARAUNI JN.,BJU,SEE,BIHAR,A
26.80539950,84.52238270,BETIAH,BTH,SPJ,BIHAR,A
25.56121010,83.98108820,BUXAR,BXR,DNR,BIHAR,A
25.58227750,85.04362790,DANAPUR,DNR,DNR,BIHAR,A
24.91514590,84.18554670,DEHRI-ON-SONE,DOS,MGS,BIHAR,A
25.70217280,85.21550340,HAJIPUR JN.,HJP,SEE,BIHAR,A
25.09607420,85.31311940,JAMUI,JMU,DNR,BIHAR,A
26.58855270,86.13590140,JAYNAGAR,JYG,SPJ,BIHAR,A
25.50615040,86.46703580,KHAGARIA JN.,KGG,SEE,BIHAR,A
26.09814030,87.94980580,KIUL JN.,KEU,DNR,BIHAR,A
26.34888110,86.07734650,MADHUBANI,MBI,SPJ,BIHAR,A
25.39218490,85.91416340,MOKAMA,MKA,DNR,BIHAR,A
26.65546410,84.90515070,BAPUDHAM MOTIHARI,BMKI,SPJ,BIHAR,A
27.10489440,84.46394440,NARKATIAGANJ JN.,NKE,SPJ,BIHAR,A
25.58581800,85.23125760,PATNA SAHIB JN.,PNC,DNR,BIHAR,A
25.60274470,85.16267850,RAJENDRA NAGAR(T),RJPB,DNR,BIHAR,A
26.98686460,84.84472170,RAUXAUL JN.,RXL,SPJ,BIHAR,A
26.75864460,84.73938090,SAGAULI JN.,SGL,SPJ,BIHAR,A
25.87337260,86.59427400,SAHARSA JN.,SHC,SPJ,BIHAR,A
25.85988310,85.78628030,SAMASTIPUR JN.,SPJ,SPJ,BIHAR,A
24.95620730,84.01856000,SASARAM JN.,SSM,MGS,BIHAR,A
25.31487430,86.49287680,JAMALPUR ,JMP,MLDT,BIHAR,A
26.21106830,84.35940160,SIWAN JN.,SV,VARANASI,BIHAR,A
26.40275440,87.26385370,JOGBANI,JBN,KIR,BIHAR,A
25.54793370,87.56514900,KATIHAR JN,KIR,KIR,BIHAR,A
26.09814030,87.94980580,KISHANGANJ,KNE,KIR,BIHAR,A
25.78922260,87.51902620,PURNEA JN,PRNA,KIR,BIHAR,A
25.61891350,88.12898620,RAIGANJ,RGJ,KIR,BIHAR,A
21.20806560,81.37543920,BHILAI POWER HOUSE,BPHB,R,CHHATTISGARH,A
22.03454400,82.66497700,CHAMPA JN.,CPH,BSP,CHHATTISGARH,A
21.19044940,81.28491690,DURG,DURG,R,CHHATTISGARH,A
21.89132760,83.39059360,RAIGARH,RIG,BSP,CHHATTISGARH,A
21.10069060,81.03858990,RAJNANDGAON,RJN,NGP,CHHATTISGARH,A
28.71649860,77.17050520,ADARSHNAGARDELHI,ANDI,DLI,DELHI,A
28.61192220,77.11564240,DELHI CANTT.,DEC,DLI,DELHI,A
28.66285690,77.18549400,DELHI SARAI ROHILLA,DEE,DLI,DELHI,A
28.67305610,77.29228130,DELHI SHAHADRA,DSA,DLI,DELHI,A
15.39638010,73.81226870,VASCO-DA-GAMA,VSG,UBL,GOA,A
22.56451750,72.92887100,ANAND,ANND,VADODARA,GUJARAT,A
21.62558030,73.00125300,ANKLESHWAR,AKV,VADODARA,GUJARAT,A
21.73096100,73.01248560,BHARUCH,BH,VADODARA,GUJARAT,A
21.76977550,72.13661490,BHAVNAGAR TERMINUS,BVC,BHAVNAGAR,GUJARAT,A
23.06844650,70.14766130,GANDHIDHAM,GIM,AHMEDABAD,GUJARAT,A
22.49299330,70.05347340,JAMNAGAR,JAM,RAJKOT,GUJARAT,A
23.60249320,72.38892210,MAHESANA,MSH,AHMEDABAD,GUJARAT,A
22.69494200,72.85615680,NADIAD,ND,VADODARA,GUJARAT,A
20.92962800,72.94469000,NAVSARI,NVS,MUMBAI CENTRAL,GUJARAT,A
23.26595310,69.67842730,NEW BHUJ,NBVJ,AHMEDABAD,GUJARAT,A
24.17490180,72.43076410,PALANPUR,PNU,AHMEDABAD,GUJARAT,A
22.74479810,71.63062340,SURENDRANAGAR,SUNR,RAJKOT,GUJARAT,A
21.17051230,72.85103350,UDHANA,UDN,MUMBAI CENTRAL,GUJARAT,A
20.60785910,72.93355300,VALSAD,BL,MUMBAI CENTRAL,GUJARAT,A
20.38931550,72.91062020,VAPI,VAPI,MUMBAI CENTRAL,GUJARAT,A
20.91151760,70.37087030,VERAVAL,VRL,BHAVNAGAR,GUJARAT,A
23.13786760,72.04245030,VIRAMGAM,VG,AHMEDABAD,GUJARAT,A
28.34053140,77.31251910,BALLABGARH,BVH,DLI,HARYANA,A
28.41073900,77.30737980,FARIDABAD,FDB,DLI,HARYANA,A
28.48881030,77.01080160,GURGAON,GGN,DLI,HARYANA,A
30.11732150,77.28770160,JAGADHRI,JUD,UMB,HARYANA,A
30.83922320,76.93163160,KALKA,KLK,UMB,HARYANA,A
29.69478600,76.96967530,KARNAL,KUN,DLI,HARYANA,A
29.38915420,76.96376600,PANIPAT,PNP,DLI,HARYANA,A
28.89067380,76.58012180,ROHTAK,ROK,DLI,HARYANA,A
29.00329600,77.02790210,SONIPAT,SNP,DLI,HARYANA,A
28.80025540,76.12401730,BHIWANI,BNW,BIKANER,HARYANA,A
29.15230630,75.72442880,HISAR,HSR,BIKANER,HARYANA,A
28.20327650,76.61058300,REWARI,RE,JAIPUR,HARYANA,A
32.92620350,75.15426450,UDHAMPUR,UHP,FZR,JAMMU & KASHMIR,A
24.03316650,84.07439310,DALTONGANJ,DTO,DHN,JHARKHAND,A
23.87172930,86.15248660,GOMOH JN.,GMO,DHN,JHARKHAND,A
24.43487820,85.52917840,KODERMA,KQR,DHN,JHARKHAND,A
23.98756800,86.03739740,PARASHNATH,PNME,DHN,JHARKHAND,A
24.51510870,86.64427120,JASIDIH ,JSME,ASN,JHARKHAND,A
24.27097560,86.64215760,MADHUPUR ,MDP,ASN,JHARKHAND,A
23.65804060,86.08401730,BOKARO SEEL CITY,BKSC,ADA,JHARKHAND,A
23.30945140,85.30881920,HATIA,HTE,RNC,JHARKHAND,A
23.34947300,85.33565600,RANCHI,RNC,RNC,JHARKHAND,A
17.31473870,76.82434310,GULBARGA,GR,SUR,KARNATAKA,A
16.19334320,77.33931050,RAICHUR                                           ,RC  ,GTL,KARNATAKA,A
16.74391610,77.13013150,YADGIR                                            ,YG  ,GTL,KARNATAKA,A
12.86158730,74.84352950,MANGALORE CENTRAL                  ,MAQ  ,PGT,KARNATAKA,A
12.86659830,74.87940990,MANGALORE JN                       ,MAJN ,PGT,KARNATAKA,A
12.99368980,77.59814220,BANGALORE CANTT.,BNC,SBC,KARNATAKA,A
12.98490290,78.17870910,BANGARPET,BWT ,SBC,KARNATAKA,A
15.86377770,74.50760110,BELGAUM,BGM,UBL,KARNATAKA,A
15.14543730,76.92217180,BELLARY,BAY,UBL,KARNATAKA,A
16.80809890,75.71750560,BIJAPUR ,BJP,UBL,KARNATAKA,A
14.46789530,75.91951340,DAVANGERE,DVG,MYS,KARNATAKA,A
15.44377140,75.00385760,DHARWAD,DWR,UBL,KARNATAKA,A
15.28656940,76.38724140,HOSPET,HPT,UBL,KARNATAKA,A
15.34801960,75.16069440,HUBLI,UBL,UBL,KARNATAKA,A
12.91779550,77.48412350,KENGERI,KGI,SBC,KARNATAKA,A
13.00056720,77.67464560,KRISHNARAJAPURAM,KJM,SBC,KARNATAKA,A
12.31668550,76.64530310,MYSORE,MYS,MYS,KARNATAKA,A
13.94348890,75.58388770,SHIMOGA TOWN,SMET,MYS,KARNATAKA,A
9.48360020,76.32229950,ALAPPUZHA                          ,ALLP ,TVC,KERALA,A
10.10848600,76.35687900,ALUVA                              ,AWY  ,TVC,KERALA,A
9.31823010,76.60849880,CHENGANNUR                         ,CNGR ,TVC,KERALA,A
9.99182220,76.28647820,ERNAKULAM TOWN                     ,ERN  ,TVC,KERALA,A
12.31999870,75.08474680,KANHANGAD                          ,KZE  ,PGT,KERALA,A
11.87152250,75.36825250,KANNUR                             ,CAN  ,PGT,KERALA,A
12.49132310,74.98769160,KASARGOD                           ,KGQ  ,PGT,KERALA,A
9.18243140,76.51258920,KAYANKULAM JN                      ,KYJ  ,TVC,KERALA,A
8.88592470,76.59518070,KOLLAM JN                          ,QLN  ,TVC,KERALA,A
9.59448900,76.53217400,KOTTAYAM                           ,KTYM ,TVC,KERALA,A
10.79928400,76.63753730,PALAKKAD JN.                       ,PGT  ,PGT,KERALA,A
12.09140300,75.19557610,PAYYANNUR                          ,PAY  ,PGT,KERALA,A
10.75927730,76.27144530,SHORANUR JN.                       ,SRR  ,PGT,KERALA,A
11.75335900,75.49291000,THALASSERY                         ,TLY  ,PGT,KERALA,A
10.91720530,75.92218830,TIRUR                              ,TIR  ,PGT,KERALA,A
9.37915940,76.57592600,TIRUVALLA                          ,TRVL ,TVC,KERALA,A
11.59345140,75.58707090,VADAKARA                           ,BDJ  ,PGT,KERALA,A
21.89692580,77.90621100,BETUL,BZU,NGP,MADHYA PRADESH,A
21.33480800,76.19932500,BURHANPUR,BAU,BSL,MADHYA PRADESH,A
21.82655900,76.34859600,KHANDWA,KNW,BSL,MADHYA PRADESH,A
24.20484800,82.64259790,SINGRAULI,SGRL,DHN,MADHYA PRADESH,A
26.50078530,78.00366220,MORENA,MRA,JHS,MADHYA PRADESH,A
24.21220000,78.18275000,BINA,BINA,BPL,MADHYA PRADESH,A
23.83563440,79.43180650,DAMOH,DMO,JBP,MADHYA PRADESH,A
23.22193060,77.43938630,HABIBGANJ,HBJ,BPL,MADHYA PRADESH,A
22.74303230,77.73295500,HOSHANGABAD,HBD,BPL,MADHYA PRADESH,A
22.60821960,77.76702250,ITARSI,ET,BPL,MADHYA PRADESH,A
23.83431560,80.40056990,KATNI,KTE,JBP,MADHYA PRADESH,A
24.25625800,80.76377500,MAIHAR,MYR,JBP,MADHYA PRADESH,A
22.75413120,78.35466610,PIPARIYA,PPI,JBP,MADHYA PRADESH,A
24.53729270,81.30418000,REWA,REWA,JBP,MADHYA PRADESH,A
24.56910540,80.82874270,SATNA,STA,JBP,MADHYA PRADESH,A
23.84761180,78.74283840,SAUGOR,SGO,JBP,MADHYA PRADESH,A
23.52257110,77.81479350,VIDISHA,BHS,BPL,MADHYA PRADESH,A
22.71956870,75.85772580,INDORE,IND,RATLAM,MADHYA PRADESH,A
23.45578420,75.41280340,NAGDA,NAD,RATLAM,MADHYA PRADESH,A
23.34055760,75.05048370,RATLAM,RTM,RATLAM,MADHYA PRADESH,A
23.17826230,75.77929450,UJJAIN,UJN,RATLAM,MADHYA PRADESH,A
19.07527600,74.72147400,AHMEDNAGAR,ANG,SUR,MAHARASHTRA,A
20.72333880,77.00570590,AKOLA,AK,BSL,MAHARASHTRA,A
20.93077450,77.75798710,AMRAVATI,AMI,BSL,MAHARASHTRA,A
20.85762480,77.73189330,BADNERA,BD,BSL,MAHARASHTRA,A
19.84993040,79.34779160,BALLARSHAH,BPQ,NGP,MAHARASHTRA,A
21.04699120,75.78838170,BHUSAWAL,BSL,BSL,MAHARASHTRA,A
20.46370950,74.99886280,CHALISGAON,CSN,BSL,MAHARASHTRA,A
19.94888470,79.29557650,CHANDRAPUR,CD,NGP,MAHARASHTRA,A
18.46400560,74.57891460,DAUND,DD,SUR,MAHARASHTRA,A
21.01824350,75.56296770,JALGAON,JL,BSL,MAHARASHTRA,A
16.70267100,74.23791700,KOLHAPUR,KOP,PA,MAHARASHTRA,A
19.90345320,74.50352650,KOPARGAON,KPG,SUR,MAHARASHTRA,A
18.09185770,75.41753810,KURDUWADI,KWV,SUR,MAHARASHTRA,A
18.42996050,76.55574680,LATUR,LUR,SUR,MAHARASHTRA,A
18.74938920,73.40807590,LONAVALA,LNL,BB,MAHARASHTRA,A
20.24973600,74.43812600,MANMAD,MMR,BSL,MAHARASHTRA,A
16.82036410,74.63876230,MIRAJ,MRJ,PA,MAHARASHTRA,A
28.70080100,77.25972700,NASIK ROAD,NKRD,BSL,MAHARASHTRA,A
18.99089400,73.12073710,PANVEL,PNVL,BB,MAHARASHTRA,A
19.78065990,74.48051130,SAINAGAR SHIRDI,SNSI,SUR,MAHARASHTRA,A
20.80067720,76.69042460,SHEGAON,SEG,BSL,MAHARASHTRA,A
20.73305150,78.59482660,WARDHA,WR,NGP,MAHARASHTRA,A
19.85983880,75.31136800,AURANGABAD                                        ,AWB ,NED,MAHARASHTRA,A
19.82968930,75.88003050,JALNA                                             ,J   ,NED,MAHARASHTRA,A
20.10132280,74.54321570,NAGARSOL                                          ,NSL ,NED,MAHARASHTRA,A
19.16051010,77.31054450,NANDED                                            ,NED ,NED,MAHARASHTRA,A
19.25765850,76.77358790,PARBHANI JN.                                      ,PBN ,NED,MAHARASHTRA,A
21.46244910,80.22097730,GONDIA,G,NGP,MAHARASHTRA,A
25.90596100,93.72825000,DIMAPUR,DMV,LMG,NAGALAND,A
21.09127580,86.51576050,BHADRAK,BHC,KUR,ODISHA,A
19.29636300,84.79702200,BRAHMAPUR,BAM,KUR,ODISHA,A
20.47915120,85.82942590,CUTTACK,CTC,KUR,ODISHA,A
20.94334850,86.13271990,JAJPUR-KEONJHAR ROAD,JJKR,KUR,ODISHA,A
20.15332460,85.70864000,KHURDA ROAD,KUR,KUR,ODISHA,A
19.17581320,83.41064970,RAYAGADA,RGDA,WAT,ODISHA,A
21.48326950,83.96172120,SAMBALPUR ,SBP,SBP,ODISHA,A
21.48693370,86.92460050,BALASORE,BLS,KGP,ODISHA,A
21.86272890,84.01789900,JHARSUGUDA,JSG,CKP,ODISHA,A
22.22758610,84.86307030,ROURKELA,ROU,CKP,ODISHA,A
30.21279600,74.93311470,BATHINDA JUNCTION,BTI,UMB,PUNJAB,A
32.23263620,75.70514340,CHAKKI BANK,CHKB,FZR,PUNJAB,A
30.94181600,74.61755560,FIROZPUR CANTT.,FZR,FZR,PUNJAB,A
31.30740970,75.63120450,JALLANDHAR CANTT.,JRC,FZR,PUNJAB,A
31.33119950,75.59075800,JALANDHAR CITY,JUC,FZR,PUNJAB,A
32.27219340,75.64772260,PATHANKOT,PTK,FZR,PUNJAB,A
30.32938900,76.39263300,PATIALA,PTA,UMB,PUNJAB,A
31.21719260,75.76548430,PHAGWARA,PGW,FZR,PUNJAB,A
30.48646760,76.59378970,RAJPURA JN.,RPJ,UMB,PUNJAB,A
30.62387250,76.38238730,SIRHIND JN.,SIR,UMB,PUNJAB,A
24.48127990,72.78534400,ABUROAD,ABR,AJMER,RAJASTHAN,A
27.56128050,76.62168580,ALWAR,AWR,JAIPUR,RAJASTHAN,A
27.03926000,76.56670410,BANDIKUI,BKI,JAIPUR,RAJASTHAN,A
25.74636490,71.39747780,BARMER,BME,JODHPUR,RAJASTHAN,A
25.34514620,74.63145350,BHILWARA,BHL,AJMER,RAJASTHAN,A
28.01455750,73.31596950,BIKANER,BKN,BIKANER,RAJASTHAN,A
25.23543370,73.23460740,FALNA,FA,AJMER,RAJASTHAN,A
26.87334300,75.79884590,GANDHINAGAR-JP,GADJ,JAIPUR,RAJASTHAN,A
29.61589000,74.30005900,HANUMANGARH JN.,HMH,BIKANER,RAJASTHAN,A
26.91709020,70.92830170,JAISALMER,JSM,JODHPUR,RAJASTHAN,A
28.04349430,73.31450980,LALGARH,LGH,BIKANER,RAJASTHAN,A
25.72040360,73.60928220,MARWAR JN.,MJ,AJMER,RAJASTHAN,A
27.19995650,73.72355680,NAGAUR,NGO,JODHPUR,RAJASTHAN,A
25.79098900,73.32742270,PALI MARWAR,PMY,JODHPUR,RAJASTHAN,A
26.87340570,75.24608300,PHULERA,FL,JAIPUR,RAJASTHAN,A
25.20550000,73.18390000,RANI,RN,AJMER,RAJASTHAN,A
29.90383990,73.87719010,SRI GANGANAGAR,SGNR,BIKANER,RAJASTHAN,A
29.32408740,73.90684290,SURATGARH,SOG,BIKANER,RAJASTHAN,A
24.56835730,73.69978920,UDAIPUR CITY,UDZ,AJMER,RAJASTHAN,A
27.23636450,77.48875740,BHARATPUR,BTE ,KOTA,RAJASTHAN,A
25.21381560,75.86475270,KOTA,KOTA,KOTA,RAJASTHAN,A
26.01900630,76.35748780,SAWAI MADHOPUR,SWM,KOTA,RAJASTHAN,A
24.92541910,74.64221840,CHITTORGARH JN.,COR,RATLAM,RAJASTHAN,A
13.08177710,79.66810300,ARAKKONAM JN                       ,AJJ  ,MAS,TAMIL NADU,A
12.69385280,79.98070780,CHENGALPATTU JN.                   ,CGL  ,MAS,TAMIL NADU,A
10.35394300,77.98608400,DINDIGUL JN                        ,DG   ,MDU,TAMIL NADU,A
11.32792800,77.72626360,ERODE JN                           ,ED   ,SA,TAMIL NADU,A
12.56282700,78.57770840,JOLARPETTAI JN                    ,JTJ  ,MAS,TAMIL NADU,A
8.08740190,77.54949260,KANNIYAKUMARI                      ,CAPE ,TVC,TAMIL NADU,A
10.96565000,78.08524240,KARUR JN.                          ,KRR  ,SA,TAMIL NADU,A
12.97224210,79.13841520,KATPADI                            ,KPD  ,MAS,TAMIL NADU,A
11.03185290,76.89085370,KOVILPATTI                         ,CVP  ,MDU,TAMIL NADU,A
10.95372330,79.38949130,KUMBAKONAM                         ,KMU  ,TPJ,TAMIL NADU,A
11.09572070,79.62850500,MAYILADUTHURAI JN.                 ,MV   ,TPJ,TAMIL NADU,A
11.29870490,76.93555400,METTUPALAIYAM                      ,MTP  ,SA,TAMIL NADU,A
8.17468480,77.44402210,NAGERCOIL JN                       ,NCJ  ,TVC,TAMIL NADU,A
9.28133140,79.30623910,RAMESWARAM                         ,RMM  ,MDU,TAMIL NADU,A
11.67026980,78.11332300,SALEM JN                           ,SA   ,SA,TAMIL NADU,A
12.92566410,80.11743150,TAMBARAM                           ,TBM  ,MAS,TAMIL NADU,A
10.77778960,79.13972460,THANJAVUR JN                       ,TJ   ,TPJ,TAMIL NADU,A
10.79470680,78.68484650,TIRUCHCHIRAPPALLI JN               ,TPJ  ,TPJ,TAMIL NADU,A
8.73139450,77.70821410,TIRUNELVELI JN                     ,TEN  ,MDU,TAMIL NADU,A
11.10856580,77.33975250,TIRUPPUR                           ,TUP  ,SA,TAMIL NADU,A
8.76416610,78.13483610,TUTICORIN                          ,TN   ,MDU,TAMIL NADU,A
11.94179400,79.49916130,VILLUPURAM JN.                     ,VM   ,TPJ,TAMIL NADU,A
9.59479450,77.95747010,VIRUDHUNAGAR JN                    ,VPT  ,MDU,TAMIL NADU,A
27.18257170,78.01822660,AGRA FORT,AF,AGC,UTTAR PRADESH,A
27.88904730,78.07494730,ALIGARH,ALJN,ALD,UTTAR PRADESH,A
25.47962240,80.33802130,BANDA,BNDA,JHS,UTTAR PRADESH,A
25.21570490,80.92121990,CHITRAKUTDHAM KARWI,CKTD,JHS,UTTAR PRADESH,A
26.78974000,79.02432500,ETAWAH,ETW,ALD,UTTAR PRADESH,A
25.91713740,80.80182640,FATEHPUR,FTP,ALD,UTTAR PRADESH,A
24.68803600,78.39568740,LALITPUR,LAR,JHS,UTTAR PRADESH,A
25.30657640,79.84819920,MAHOBA,MBA,JHS,UTTAR PRADESH,A
25.13502920,82.56911550,MIRZAPUR,MZP,ALD,UTTAR PRADESH,A
26.00864000,79.44788580,ORAI,ORAI,JHS,UTTAR PRADESH,A
26.63222300,79.55419200,PHAPHUND,PHD,ALD,UTTAR PRADESH,A
27.19407050,77.99688270,RAJA KI MANDI,RKM,AGC,UTTAR PRADESH,A
27.20799960,78.23321440,TUNDLA,TDL,ALD,UTTAR PRADESH,A
26.26844140,83.00793710,AZAMGARH,AMH,VARANASI,UTTAR PRADESH,A
25.75931200,84.14835800,BALLIA,BUI,VARANASI,UTTAR PRADESH,A
26.81540120,82.76914510,BASTI,BST,LUCKNOW,UTTAR PRADESH,A
26.12086780,83.84137370,BELTHARA ROAD,BLTR,VARANASI,UTTAR PRADESH,A
26.50795980,83.78199100,DEORIA SADAR,DEOS,VARANASI,UTTAR PRADESH,A
27.15428380,81.97707700,GONDA JN.,GD,LUCKNOW,UTTAR PRADESH,A
26.77490020,83.05543460,KHALILABAD,KLD,LUCKNOW,UTTAR PRADESH,A
25.93943230,83.56380690,MAU JN.,MAU,VARANASI,UTTAR PRADESH,A
26.42921670,82.54005850,AKBAR PUR,ABP,LKO,UTTAR PRADESH,A
26.78836680,82.20085540,AYODHYA,AY,LKO,UTTAR PRADESH,A
26.92643820,81.19678050,BARABANKI,BBK,LKO,UTTAR PRADESH,A
25.31296990,82.55985260,BHADOHI,BOY,LKO,UTTAR PRADESH,A
28.53095310,78.73474640,CHANDAUSI,CH,MB,UTTAR PRADESH,A
26.76869130,82.13571890,FAIZABAD,FD,LKO,UTTAR PRADESH,A
28.65308620,77.42798990,GHAZIABAD,GZB,DLI,UTTAR PRADESH,A
28.73914060,77.77872440,HAPUR,HPU,MB,UTTAR PRADESH,A
27.38328200,80.13752300,HARDOI,HRI,MB,UTTAR PRADESH,A
26.84670880,80.94615920,JANGHAI,JNH,LKO,UTTAR PRADESH,A
25.76142090,82.69925680,JAUNPUR,JNU,LKO,UTTAR PRADESH,A
28.97882550,77.67494970,MEERUT CANTT.,MUT,DLI,UTTAR PRADESH,A
28.97882550,77.67494970,MEERUT CITY,MTC,DLI,UTTAR PRADESH,A
28.83220510,78.76590530,MORADABAD,MB,MB,UTTAR PRADESH,A
29.46988500,77.70809370,MUZAFFARNAGAR,MOZ,DLI,UTTAR PRADESH,A
25.90789490,81.99356140,PARTAPGARH,PBH,LKO,UTTAR PRADESH,A
26.23220500,81.23910270,RAE - BARELI JN.,RBL,LKO,UTTAR PRADESH,A
28.77868300,79.02335200,RAMPUR,RMU,MB,UTTAR PRADESH,A
29.96153910,77.54044490,SAHARANPUR JN.,SRE,UMB,UTTAR PRADESH,A
26.06124500,82.67989000,SHAHGANJ,SHG,LKO,UTTAR PRADESH,A
27.89310250,79.90622560,SHAHJAHANPUR ,SPN,MB,UTTAR PRADESH,A
26.26461910,82.06707720,SULTANPUR,SLN,LKO,UTTAR PRADESH,A
26.53934490,80.48781950,UNNAO,ON,LKO,UTTAR PRADESH,A
29.26690160,79.54682120,KATHGODAM,KGM,IZZATNAGAR,UTTARAKHAND,A
28.96942260,79.37990480,RUDRAPUR CITY,RUPC,IZZATNAGAR,UTTARAKHAND,A
29.22853510,78.96333680,ROORKEE,RK,MB,UTTARAKHAND,A
23.69111080,86.97523500,ASANSOL ,ASN,ASN,WEST BENGAL,A
22.92278930,88.37769670,BANDEL,BDC,HWH,WEST BENGAL,A
23.25018930,87.86963140,BARDDHAMAN,BWN,HWH,WEST BENGAL,A
23.49548880,87.31747260,DURGAPUR ,DGR,ASN,WEST BENGAL,A
22.60157080,88.38381680,KOLKATA TERMINAL,KOAA,SDAH,WEST BENGAL,A
25.01611990,88.13050430,MALDA TOWN ,MLDT,MLDT,WEST BENGAL,A
22.88706340,88.41751590,NAIHATI JN.,NH,SDAH,WEST BENGAL,A
24.79431550,87.91564550,NEW FARAKKA ,NFK,MLDT,WEST BENGAL,A
24.17934700,87.78202100,RAMPURHAT ,RPH,HWH,WEST BENGAL,A
26.52373180,89.53413470,ALIPURDUAR JUNCTION,APDJ,APDJ,WEST BENGAL,A
26.31866080,89.45605740,COOCHBEHAR,COB,APDJ,WEST BENGAL,A
26.48370220,89.54088080,NEW ALIPURDUAR,NOQ,APDJ,WEST BENGAL,A
26.35281600,89.46894010,NEW COOCHBEHAR,NCB,APDJ,WEST BENGAL,A
26.72351480,88.41403100,SILIGURI JN,SGUJ,KIR,WEST BENGAL,A
21.62661720,87.50743150,DIGHA,DGHA,KGP,WEST BENGAL,A
22.55637620,88.31485740,SHALIMAR,SHM,KGP,WEST BENGAL,A
22.62102740,88.39281830,DUM DUM,KDMI,NA,WEST BENGAL,A
22.56494190,88.35169870,ESPLANADE,KESP,NA,WEST BENGAL,A
18.33273350,82.86524740,ARAKU,ARK,WAT,ANDHRA PRADESH,B
18.57634000,83.34591560,BOBBILI,VBL,WAT,ANDHRA PRADESH,B
18.27521760,83.04001980,BORRAGUHALU,BGHU,WAT,ANDHRA PRADESH,B
17.70307560,83.15099660,DUVVADA,DVD,WAT,ANDHRA PRADESH,B
19.11138090,84.68062730,ICHCHHAPURAM,IPM,KUR,ANDHRA PRADESH,B
17.74524950,83.22076510,SIMHACHALAM,SCM,WAT,ANDHRA PRADESH,B
18.98136460,84.58150340,SOMPETA,SPT,KUR,ANDHRA PRADESH,B
19.68060510,78.53624000,ADILABAD                                          ,ADB ,NED,ANDHRA PRADESH,B
15.61759950,77.27468820,ADONI                                             ,AD  ,GTL,ANDHRA PRADESH,B
17.27767460,82.40076540,ANNAVARAM                                         ,ANV ,BZA       ,ANDHRA PRADESH,B
15.90841110,80.46849690,BAPATLA                                           ,BPP ,BZA       ,ANDHRA PRADESH,B
15.91289980,79.73998750,BASAR                                             ,BSX ,HYB       ,ANDHRA PRADESH,B
17.43861610,78.45831020,BEGUMPET                                      ,BMT ,SC        ,ANDHRA PRADESH,B
17.55131810,80.61441840,BHADRACHALAM ROAD                                 ,BDCR,SC        ,ANDHRA PRADESH,B
16.54458810,81.53737300,BHIMAVARAM JN.                                    ,BVRM,BZA       ,ANDHRA PRADESH,B
13.21896520,79.10334820,CHITTOOR                                          ,CTO ,GTL,ANDHRA PRADESH,B
14.42475550,77.71766580,DHARMAVARAM                                       ,DMM ,GTL,ANDHRA PRADESH,B
15.39528290,77.86804160,DHONE,DHNE,GTL,ANDHRA PRADESH,B
15.14967830,77.62604750,GOOTY JN.                                         ,GY  ,GTL,ANDHRA PRADESH,B
16.43051310,80.98833900,GUDIVADA JN.                                      ,GDV ,BZA       ,ANDHRA PRADESH,B
16.95385990,82.24057090,KAKINADA PORT                                     ,COA ,BZA       ,ANDHRA PRADESH,B
14.44713790,79.97830650,KAMAREDDI                                         ,KMC ,HYB       ,ANDHRA PRADESH,B
14.91574890,79.98857980,KAVALI                                            ,KVZ ,BZA       ,ANDHRA PRADESH,B
17.48298650,78.31687250,LINGAMPALLI                                       ,LPI ,SC        ,ANDHRA PRADESH,B
16.17182360,81.13822820,MACHILIPATNAM                                     ,MTM ,BZA       ,ANDHRA PRADESH,B
16.75744740,77.99907750,MAHABOOBNAGAR                                 ,MBNR,HYB       ,ANDHRA PRADESH,B
16.51862490,80.61989770,MAHBUBABAD                                        ,MABD,SC        ,ANDHRA PRADESH,B
15.94430780,77.29816620,MANTRALAYAM ROAD                                  ,MALM,GTL,ANDHRA PRADESH,B
16.95385990,82.24057090,NALGONDA                                          ,NLDA,GNT       ,ANDHRA PRADESH,B
15.46816120,78.47288560,NANDYAL                                           ,NDL ,GNT       ,ANDHRA PRADESH,B
16.54458810,81.53737300,NARASAPUR                                         ,NS  ,BZA       ,ANDHRA PRADESH,B
16.89821780,81.67455830,NIDADAVOLU JN.                                    ,NDD ,BZA       ,ANDHRA PRADESH,B
15.91289980,79.73998750,PALAKOLLU                                         ,PKO ,BZA       ,ANDHRA PRADESH,B
18.76375900,79.43489680,RAMAGUNDAM                                        ,RDM ,SC        ,ANDHRA PRADESH,B
15.25256170,80.02641990,SINGARAYAKONDA                                    ,SKM ,BZA       ,ANDHRA PRADESH,B
19.34656760,79.48999190,SIRPUR KAGHAZNAGAR                                 ,SKZR,SC        ,ANDHRA PRADESH,B
13.74381120,79.68160830,SRI KHALASTHI                                     ,KHT ,GTL,ANDHRA PRADESH,B
13.58834830,80.03626240,TANDUR                                            ,TDU ,SC        ,ANDHRA PRADESH,B
16.75173900,81.67406300,TANUKU                                            ,TNKU,BZA       ,ANDHRA PRADESH,B
17.33450590,77.90871080,VIKARABAD JN.                                     ,VKB ,SC        ,ANDHRA PRADESH,B
14.64363470,78.53366540,YERRAGUNTLA                                       ,YA  ,GTL,ANDHRA PRADESH,B
13.81877750,77.50009230,HINDUPUR,HUP,SBC,ANDHRA PRADESH,B
27.46437530,94.93655350,DIBRUGARH ,DBRG,TSK,ASSAM,B
25.83798950,93.43865640,DIPHU,DPU,LMG,ASSAM,B
26.35660260,92.67304220,HAIBORGAON,HBN,LMG,ASSAM,B
26.01886200,92.87202700,HOJAI,HJI,LMG,ASSAM,B
26.13977540,91.78628540,KOKRAJHAR,KOJ,APDJ,ASSAM,B
26.65323610,94.30905370,MARIANI,MXN,TSK,ASSAM,B
26.47546000,90.53718000,NEW BONGAIGAON ,NBQ,RNY,ASSAM,B
27.47976160,95.33401080,NEW TINSUKIA,NTSK,TSK,ASSAM,B
26.20060430,92.93757390,TEZPUR ,TZTB,RNY,ASSAM,B
27.13032390,84.06736720,BAGAHA,BUG,SPJ,BIHAR,B
25.48093920,85.70678110,BARH,BARH,DNR,BIHAR,B
25.42492310,86.13404210,BEGUSARAI,BGS,SEE,BIHAR,B
25.17274830,83.61945330,BHABHUA ROAD,BBU,MGS,BIHAR,B
25.20308290,85.53940750,BIHARSHARIF,BEHS,DNR,BIHAR,B
26.41727740,85.04697000,CHAKIA,CAA,SPJ,BIHAR,B
25.73052860,85.93366420,DALSINGHSARAI,DSS,SEE,BIHAR,B
25.57176670,84.14347710,DUMRAON,DURE,DNR,BIHAR,B
25.36606200,85.98733100,HATHIDAH,HTZ,DNR,BIHAR,B
24.77289900,86.38613460,JHAJHA,JAJ,DNR,BIHAR,B
25.17190010,86.09404940,LUCKEE SARAI,LKR,DNR,BIHAR,B
25.50912670,86.55537140,MANSI JN.,MNE,SEE,BIHAR,B
26.23859410,86.09587580,NAUGACHIA,NNA,SEE,BIHAR,B
25.03296510,85.41520640,RAJGIR,RGD,DNR,BIHAR,B
26.20888210,86.07725740,SAKARI JN.,SKI,SPJ,BIHAR,B
26.91908400,75.79948620,SITAMARHI,SMI,SPJ,BIHAR,B
25.69711880,85.16859950,SONEPUR,SEE,SEE,BIHAR,B
25.25252000,87.23977260,KAHAL GAON,CLG,MLDT,BIHAR,B
25.24165180,86.73545060,SULTANGANJ,SGG,MLDT,BIHAR,B
24.77666890,84.15693610,MAIRWA,MW,VARANASI,BIHAR,B
26.11465690,87.44746950,ARARIA COURT,ARQ,KIR,BIHAR,B
25.65118140,87.92367430,BARSOI JN.,BOE ,KIR,BIHAR,B
26.29911500,87.26235000,FORBESGANJ,FBG,KIR,BIHAR,B
19.06629940,82.01410440,JAGDALPUR,JDB,WAT,CHHATTISGARH,B
22.02911500,82.42247690,AKALTARA,AKT,BSP,CHHATTISGARH,B
23.13690170,83.14363680,AMBIKAPUR,ABKP,BSP,CHHATTISGARH,B
21.73293090,81.94649160,BHATAPARA,BYT,R,CHHATTISGARH,B
21.18558510,80.76006620,DONGARGARH,DGG,NGP,CHHATTISGARH,B
22.35645850,82.70613320,KORBA,KRBA,BSP,CHHATTISGARH,B
22.75583590,81.89909750,PENDRA ROAD *,PND,BSP,CHHATTISGARH,B
21.55069900,81.79482100,TILDA,TLD,R,CHHATTISGARH,B
28.68240680,77.06463120,NANGLOI,NNO,DLI,DELHI,B
28.68135030,77.12786030,SHAKURBASTI,SSB,DLI,DELHI,B
28.66855640,77.20041620,SUBZI MANDI,SZM,DLI,DELHI,B
19.18484400,72.83408700,BHAUCHAU,BCO,AHMEDABAD,GUJARAT,B
20.76519590,72.97050830,BILMORA,BIM,MUMBAI CENTRAL,GUJARAT,B
22.18294060,71.66566660,BOTAD,BTD,BHAVNAGAR,GUJARAT,B
22.84394450,74.25437510,DAHOD,DHD,RATLAM,GUJARAT,B
22.25094320,68.98042030,DWARKA,DWK,RAJKOT,GUJARAT,B
22.77675970,73.60615420,GODHARA,GDA,VADODARA,GUJARAT,B
21.97221080,70.79549850,GONDAL,GDL,BHAVNAGAR,GUJARAT,B
22.46799780,70.11655550,HAPA,HAPA,RAJKOT,GUJARAT,B
21.52910060,70.45784450,JUNAGARH,JND,BHAVNAGAR,GUJARAT,B
22.47181660,69.07590050,OKHA,OKHA,RAJKOT,GUJARAT,B
21.64338300,69.61406100,PORBANDAR,PBR,BHAVNAGAR,GUJARAT,B
20.46212960,72.91902610,UDVADA,UVD,MUMBAI CENTRAL,GUJARAT,B
22.62174980,70.96517510,WANKANER,WKR,RAJKOT,GUJARAT,B
29.05877570,76.08560100,BAHADURGARH,BGZ,DLI,HARYANA,B
28.37660750,77.30955720,FARIDABAD TOWN,FDN,DLI,HARYANA,B
29.32902860,76.28954510,JIND,JHI,DLI,HARYANA,B
29.96946700,76.85197280,KURUKSHETRA,KKDE,DLI,HARYANA,B
28.15126430,77.34142730,PALWAL,PWL,DLI,HARYANA,B
29.53945340,75.03501200,SIRSA,SSA,BIKANER,HARYANA,B
31.47880950,76.27495080,UNA HIMACHAL,UHL,UMB,HIMACHAL PRADESH,B
32.39780210,75.55114210,KATHUA,KTHU,FZR,JAMMU & KASHMIR,B
23.62413440,85.47010810,BARKA KANA JN.,BRKA,DHN,JHARKHAND,B
23.75543090,86.12027810,CHANDRA PURA JN.,CRP,DHN,JHARKHAND,B
24.21471190,83.88535410,GARWA ROAD JN.,GHD,DHN,JHARKHAND,B
24.85787390,87.77464220,BARHARWA,BHW,MLDT,JHARKHAND,B
23.85709150,86.87862410,CHITTARANJAN,CRJ,ASN,JHARKHAND,B
24.63994770,87.83363890,PAKUR,PKR,HWH,JHARKHAND,B
25.24052000,87.63438800,SAHIBGANJ,SBG,MLDT,JHARKHAND,B
22.67823700,85.62731700,CHAKRADHARPUR,CKP,CKP,JHARKHAND,B
17.05483220,76.99274740,WADI,WADI,SUR,KARNATAKA,B
17.91178830,77.51528060,BIDAR                                             ,BIDR,SC        ,KARNATAKA,B
13.31360910,76.25334310,ARSIKERE,ASK,MYS,KARNATAKA,B
16.17890310,75.70034830,BAGALKOT,BGK,UBL,KARNATAKA,B
13.00539520,77.62873270,BANASWADI,BAND,SBC,KARNATAKA,B
13.84239870,75.70280200,BHADRAVATHI,BDVT,MYS,KARNATAKA,B
13.59331060,75.97291770,BIRUR,RRB,MYS,KARNATAKA,B
15.43671640,75.64208420,GADAG,GDG,UBL,KARNATAKA,B
14.51542530,75.81089720,HARIHAR,HRR,MYS,KARNATAKA,B
12.99579100,77.76628890,HASSAN **,HAS,MYS,KARNATAKA,B
12.98184940,77.53245160,HAVERI,HVR,MYS,KARNATAKA,B
14.62203350,75.63301230,KOPPAL,KBL,UBL,KARNATAKA,B
15.44900720,74.49644700,LONDA **,LD,UBL,KARNATAKA,B
12.52916660,76.89713650,MANDYA,MYA ,SBC,KARNATAKA,B
15.20306750,76.66311060,TORNAGALLU,TNGL,UBL,KARNATAKA,B
13.33390430,77.10192400,TUMKUR,TK ,SBC,KARNATAKA,B
13.10218230,77.59283530,YELAHANKA,YNK ,SBC,KARNATAKA,B
9.45025150,76.54747330,CHANGANACHERI                      ,CGY  ,TVC,KERALA,B
10.59730010,76.04590250,GURUVAYUR                          ,GUV  ,TVC,KERALA,B
8.50980220,76.89711280,KOCHUVELI                          ,KCVL ,TVC,KERALA,B
8.54162200,76.90569940,KUTTIPURAM                         ,KTU  ,PGT,KERALA,B
10.76977870,76.37770410,OTTAPPALAM                         ,OTP  ,PGT,KERALA,B
11.44613070,75.69380500,QUILANDI                           ,QLD  ,PGT,KERALA,B
8.74033070,76.72335320,VARKALASHIVAGIRI                   ,VAK  ,TVC,KERALA,B
25.88182110,78.33056590,DABRA,DBA,JHS,MADHYA PRADESH,B
25.64098860,78.45618950,DATIA,DAA,JHS,MADHYA PRADESH,B
24.79647660,79.88936480,KHAJURAHO ,KURJ,JHS,MADHYA PRADESH,B
23.11759460,81.69559170,ANUPPUR JN,APR,BSP,MADHYA PRADESH,B
22.05793820,78.95375260,CHHINDWARA,CWA,NGP,MADHYA PRADESH,B
23.28616770,81.36451770,SHAHDOL,SDL,BSP,MADHYA PRADESH,B
23.52487630,80.83462940,UMARIA *,UMR,BSP,MADHYA PRADESH,B
22.90036680,78.79266930,GADARWARA,GAR,JBP,MADHYA PRADESH,B
23.84586120,77.94466700,GANJBASODA,BAQ,BPL,MADHYA PRADESH,B
24.64101740,77.31436240,GUNA,GUNA,BPL,MADHYA PRADESH,B
22.33917000,77.10172600,HARDA,HD,BPL,MADHYA PRADESH,B
23.83109290,80.39195630,KATNI MURWARA,KMZ,JBP,MADHYA PRADESH,B
23.16027170,79.92079660,MADANMAHAL,MML,JBP,MADHYA PRADESH,B
22.94306560,79.21465940,NURSINGHPUR,NU,JBP,MADHYA PRADESH,B
23.48768300,77.73586600,SANCHI,SCI,BPL,MADHYA PRADESH,B
25.43815910,77.63805810,SHIVPURI,SVPI,BPL,MADHYA PRADESH,B
22.97799330,76.05160930,DEWAS,DWX,RATLAM,MADHYA PRADESH,B
24.07528970,75.07632360,MANDSAUR,MDS,RATLAM,MADHYA PRADESH,B
22.55552790,75.76913770,MHOW,MHW,RATLAM,MADHYA PRADESH,B
24.46230870,74.85008510,NIMACH,NMH,RATLAM,MADHYA PRADESH,B
19.89703100,73.83674900,DEVLALI,DVL,BSL,MAHARASHTRA,B
20.78442200,78.13831500,DHAMANGAON,DMN,NGP,MAHARASHTRA,B
17.56529910,75.98968170,HOTGI,HG,SUR,MAHARASHTRA,B
19.69456680,73.56217340,IGATPURI,IGP,BB,MAHARASHTRA,B
17.31006680,74.21674230,KARAD,KRD,PA,MAHARASHTRA,B
20.89182750,76.20457230,MALKAPUR,MKU,BSL,MAHARASHTRA,B
19.07072600,72.83612700,MATHERAN$,MAE,BB,MAHARASHTRA,B
20.73629530,77.35487470,MURTIZAPUR,MZR,BSL,MAHARASHTRA,B
20.66868500,75.34914310,PACHORA,PC,BSL,MAHARASHTRA,B
17.66943600,75.31962100,PANDHARPUR  ,PVR,SUR,MAHARASHTRA,B
16.85849390,74.58812180,SANGLI,SLI,PA,MAHARASHTRA,B
17.68815340,74.06342590,SATARA,STR,PA,MAHARASHTRA,B
20.73916830,78.61852750,SEWAGRAM,SEGM,NGP,MAHARASHTRA,B
21.37406650,74.24438420,NANDURBAR,NDB,MUMBAI CENTRAL,MAHARASHTRA,B
19.14799400,77.50967600,MUDKHED JN.                                       ,MUE ,NED,MAHARASHTRA,B
18.85259340,76.52500020,PARLI VAIJNATH                                    ,PRLI,SC        ,MAHARASHTRA,B
19.18065780,77.02532080,PURNA,PAU,NED,MAHARASHTRA,B
19.94026710,79.31264670,CHANDAFORT *,CAF,NGP,MAHARASHTRA,B
21.15770890,79.11979500,ITWARI,ITR,NGP,MAHARASHTRA,B
21.39355400,79.29993090,RAMTEK *,RTK,NGP,MAHARASHTRA,B
20.86024740,85.10203690,ANGUL,ANGL,KUR,ODISHA,B
20.68767440,83.49384690,BALANGIR ,BLGR,SBP,ODISHA,B
19.74735310,85.20073110,BALUGAON,BALU,KUR,ODISHA,B
21.33286740,83.64320930,BARGARH ROAD,BRGA,SBP,ODISHA,B
19.95202270,85.47671250,BHUSANDPUR,BSDP,KUR,ODISHA,B
19.35918790,84.97378950,CHATRAPUR ,CAP,KUR,ODISHA,B
19.84496270,85.47880650,CHILKA,CLKA,KUR,ODISHA,B
18.76848730,82.86641790,DAMAJODI,DMNJ,WAT,ODISHA,B
20.95166580,85.09852360,DHANMANDAL,DNM,KUR,ODISHA,B
20.67665720,85.59055180,DHENKANAL,DNKL,KUR,ODISHA,B
20.30839300,86.26048200,GORAKHNATH,GRKN,KUR,ODISHA,B
20.95166580,85.09852360,HARICHANDANPUR,HCNR,KUR,ODISHA,B
20.26660100,85.84361540,HARISANKAR ROAD,HSK,SBP,ODISHA,B
20.95166580,85.09852360,JEYPORE,JYP,WAT,ODISHA,B
19.89704700,85.40346400,KALUPARAGHAT,KAPG,KUR,ODISHA,B
20.28455010,83.15468210,KANTABANJI,KBJ,SBP,ODISHA,B
21.66049900,85.62625200,KENDUJHARGARH,KDJR,KUR,ODISHA,B
20.18841400,83.22495990,KESINGA,KSNG,SBP,ODISHA,B
20.35525500,85.81530170,KHALLIKOTA,KIT,KUR,ODISHA,B
18.79201900,82.71901200,KORAPUT,KRPU,WAT,ODISHA,B
20.80961220,82.56262510,NAWAPARA ROAD,NPD,SBP,ODISHA,B
19.99517430,85.53585030,NIRAKARPUR,NKP,KUR,ODISHA,B
20.27974080,86.61223800,PARADEEP,PRDP,KUR,ODISHA,B
19.94290300,85.81586700,SAKHIGOPAL,SIL,KUR,ODISHA,B
20.93224750,85.20056600,TALCHER,TLHR,KUR,ODISHA,B
20.28455010,83.15468210,TITLAGARH JN.,TIG,SBP,ODISHA,B
11.92492680,79.82773240,PUDUCHERRY                         ,PDY  ,TPJ,PUDUCHERRY,B
30.13923290,74.19463630,ABOHAR JN.,ABS,UMB,PUNJAB,B
30.68717590,74.75269720,FARIDKOT,FDK,FZR,PUNJAB,B
31.01696910,75.78592950,PHILLAUR,PHR,FZR,PUNJAB,B
26.69634050,77.90601640,DHOLPUR ,DHO,JHS,RAJASTHAN,B
25.83049300,72.24710200,BALOTRA,BLT,JODHPUR,RAJASTHAN,B
26.10809840,74.31398640,BEAWAR,BER,AJMER,RAJASTHAN,B
26.90038430,76.33081820,DAUSA,DO,JAIPUR,RAJASTHAN,B
25.07531800,73.14085190,JAWAIBANDH,JWB,AJMER,RAJASTHAN,B
26.88889900,75.80301400,KISHANGARH,KSG,JAIPUR,RAJASTHAN,B
27.03700500,74.72511490,MAKRANA,MKN,JODHPUR,RAJASTHAN,B
24.79456160,73.97354460,MAVLI JN. ,MVJ,AJMER,RAJASTHAN,B
26.72775440,73.91790360,MERTA ROAD,MTD,JODHPUR,RAJASTHAN,B
27.55461780,73.47616830,NOKHA,NOK,JODHPUR,RAJASTHAN,B
26.29140000,73.04001500,RAI KA BAGH PALACE JN,RKB,JODHPUR,RAJASTHAN,B
27.61698220,75.15333480,SIKAR,SIKR,JAIPUR,RAJASTHAN,B
24.41937750,75.83036780,BHAWANI MANDI,BWM,KOTA,RAJASTHAN,B
25.40847200,75.65126620,BUNDI,BUDI,KOTA,RAJASTHAN,B
26.46832540,76.72731730,GANGAPUR CITY,GGC,KOTA,RAJASTHAN,B
26.75191930,77.02836860,HINDAUN CITY,HAN,KOTA,RAJASTHAN,B
24.64397720,75.93979220,RAMGANJ MANDI,RMA,KOTA,RAJASTHAN,B
12.78356920,78.72184650,AMBUR                              ,AB   ,MAS,TAMIL NADU,B
11.15032330,79.06856600,ARIYALUR                           ,ALU  ,TPJ,TAMIL NADU,B
10.06967320,78.79395610,KARAIKKUDI  JN                     ,KKDI ,MDU,TAMIL NADU,B
8.30129890,77.21868620,KULITTURAI                         ,KZT  ,TVC,TAMIL NADU,B
13.03867570,80.22791240,MAMBALAM                           ,MBM  ,MAS,TAMIL NADU,B
12.42839800,79.83300070,MELMARUVATHUR                      ,MLMR ,MAS,TAMIL NADU,B
10.75971510,79.84560520,NAGAPPATTINAM                      ,NGT  ,TPJ,TAMIL NADU,B
12.86827580,80.06396890,PARAMAKKUDI                        ,PMK  ,MDU,TAMIL NADU,B
13.10769740,80.24447290,PERAMBUR                           ,PER  ,MAS,TAMIL NADU,B
9.45227910,77.56060120,RAJAPALAIYAM                       ,RJPM ,MDU,TAMIL NADU,B
9.35853700,78.83746300,RAMANATHAPURAM                     ,RMD  ,MDU,TAMIL NADU,B
11.49572190,77.23754530,SATTUR                             ,SRT  ,MDU,TAMIL NADU,B
8.98732310,77.24224280,SENGOTTAI                          ,SCT  ,MDU,TAMIL NADU,B
8.96399600,77.30727300,TENKASI JN                         ,TSI  ,MDU,TAMIL NADU,B
10.99228360,76.95868970,TIRUTTANI                          ,TRT  ,MAS,TAMIL NADU,B
13.11607520,79.91284890,TIRUVALLUR                         ,TRL  ,MAS,TAMIL NADU,B
11.53509150,79.31609980,VRIDDHACHALAM JN.                  ,VRI  ,TPJ,TAMIL NADU,B
12.73969400,77.82039460,HOSUR,HSRA,SBC,TAMIL NADU,B
23.79278560,91.27842060,AGARTALA,AGTL,LMG,TRIPURA,B
26.87024000,80.96944000,CHOPAN,CPU,DHN,UTTAR PRADESH,B
25.41955920,83.66843960,DILDARNAGAR JN.,DLN,DNR,UTTAR PRADESH,B
24.20343150,83.03982010,RENUKUT,RNQ,DHN,UTTAR PRADESH,B
25.29000000,80.57020000,ATARRA,ATE,JHS,UTTAR PRADESH,B
28.67593300,77.37629300,BABINA ,BAB,JHS,UTTAR PRADESH,B
27.14767650,78.38666870,FIROZABAD,FZD,ALD,UTTAR PRADESH,B
25.06326140,81.09405710,MANIKPUR,MKP,JHS,UTTAR PRADESH,B
27.08624490,78.57557790,SHIKOHABAD,SKB,ALD,UTTAR PRADESH,B
25.16074150,82.50202730,VINDHYACHAL,BDL,ALD,UTTAR PRADESH,B
26.83800400,80.90996800,AISHBAGH,ASH,LUCKNOW,UTTAR PRADESH,B
26.86931300,80.96098090,BADSHAHNAGAR,BNZ,LUCKNOW,UTTAR PRADESH,B
28.35624430,79.40335230,BAREILLY CITY,BC ,IZZATNAGAR,UTTAR PRADESH,B
26.38135200,83.93292730,BHATNI JN.,BTT,VARANASI,UTTAR PRADESH,B
27.38216940,79.57144520,FARRUKHABAD JN.,FBD,IZZATNAGAR,UTTAR PRADESH,B
27.37006080,79.62095230,FATEHGARH,FGR,IZZATNAGAR,UTTAR PRADESH,B
25.58341490,83.56721590,GHAZIPUR CITY,GCT,VARANASI,UTTAR PRADESH,B
27.02656010,79.92600370,KANNAUJ,KJN,IZZATNAGAR,UTTAR PRADESH,B
26.45545610,80.32862950,KANPUR (ANWARGANJ),CPA,LUCKNOW,UTTAR PRADESH,B
27.80090360,78.64537020,KASGANJ JN.,KSJ,IZZATNAGAR,UTTAR PRADESH,B
26.08861150,82.86633380,KHORASAN ROAD,KRND,VARANASI,UTTAR PRADESH,B
27.94740790,80.77732710,LAKHIMPUR,LMP,LUCKNOW,UTTAR PRADESH,B
25.29956950,82.97226090,MANDUADIH,MUV,VARANASI,UTTAR PRADESH,B
27.03967450,82.22687450,MANKAPUR JN.,MUR,LUCKNOW,UTTAR PRADESH,B
28.61566070,79.81423140,PILIBHIT  JN.,PBE,IZZATNAGAR,UTTAR PRADESH,B
26.29788840,83.92342710,SALEMPUR JN.,SRU,VARANASI,UTTAR PRADESH,B
27.55750870,80.69936520,SITAPUR,STP,LUCKNOW,UTTAR PRADESH,B
25.80818830,84.48112960,SURAIMANPUR,SIP,VARANASI,UTTAR PRADESH,B
26.15295020,81.80612440,AMETHI,AME,LKO,UTTAR PRADESH,B
28.89253340,78.47562000,AMROHA,AMRO,MB,UTTAR PRADESH,B
29.67965100,77.67075500,DEOBAND,DBD,DLI,UTTAR PRADESH,B
25.73355590,82.66784000,JAUNPUR CITY,JOP,LKO,UTTAR PRADESH,B
29.75267800,78.01987300,LAKSAR,LRJ,MB,UTTAR PRADESH,B
29.60345600,78.33638500,NAZIBABAD,NBD,MB,UTTAR PRADESH,B
26.46065090,81.63278000,NIHAL GARH,NHH,LKO,UTTAR PRADESH,B
25.55206860,82.09077690,PHUL PUR,PLP,LKO,UTTAR PRADESH,B
25.46857110,81.86791680,PRYAG,PRG,LKO,UTTAR PRADESH,B
28.69159800,77.56279600,SAHIBABAD,SBB,DLI,UTTAR PRADESH,B
29.21516950,79.53391120,HALDWANI,HDW,IZZATNAGAR,UTTARAKHAND,B
29.20464660,78.96103690,KASHIPUR JN.,KPV,IZZATNAGAR,UTTARAKHAND,B
29.07132260,79.51730990,LALKUAN,LKU,IZZATNAGAR,UTTARAKHAND,B
30.03177300,78.20947590,RAIWALA,RWL,MB,UTTARAKHAND,B
30.10766710,78.28794250,RISHIKESH,RKSH,MB,UTTARAKHAND,B
24.08921210,88.26379070,BERHAMPUR COURT,BPC,SDAH,WEST BENGAL,B
23.65854550,87.69858990,BOLPUR,BHP,HWH,WEST BENGAL,B
23.47347290,87.42800100,PANAGARH,PAN,ASN,WEST BENGAL,B
23.60367500,87.11750910,RANIGANJ  ,RNG,ASN,WEST BENGAL,B
26.26951000,88.18532700,ALUABARI ROAD,AUB,KIR,WEST BENGAL,B
25.87449100,87.83875500,DALKHOLA,DLK,KIR,WEST BENGAL,B
26.57415940,88.99381320,DHUPGURI,DQG,APDJ,WEST BENGAL,B
26.12380600,89.46805880,DINHATA ,DHH,APDJ,WEST BENGAL,B
26.72692720,89.34717740,HASIMARA,HSA,APDJ,WEST BENGAL,B
26.51862670,88.72398550,JALPAIGURI,JPG,KIR,WEST BENGAL,B
26.87395650,88.72567970,NEW MAL JN.,NMZ,APDJ,WEST BENGAL,B
25.27631680,88.00994980,SAMSI,SM,KIR,WEST BENGAL,B
23.49556260,86.68530460,ADRA,ADRA,ADA,WEST BENGAL,B
23.22448760,87.07464600,BANKURA,BQA,ADA,WEST BENGAL,B
22.42507900,87.30741800,MIDNAPUR,MDN,KGP,WEST BENGAL,B
23.32574130,86.37820310,PURULIA,PRR,ADA,WEST BENGAL,B
22.54122160,88.34727260,RABINDRA SADAN,KRSD,NA,WEST BENGAL,B
22.49463920,88.34503180,MAHANAYAK UTTAM KUMAR,KMUK,NA,WEST BENGAL,B
22.51665250,88.34600330,KALIGHAT,KKHG,NA,WEST BENGAL,B
22.50799270,88.34564300,RABINDRA SAROVAR,KRSB,NA,WEST BENGAL,B
22.46418230,88.38060670,KAVI NAZRUL,KKNZ,NA,WEST BENGAL,B
22.56679550,88.35413750,CHANDNI CHOWK,KCWC,NA,WEST BENGAL,B
23.66527960,87.01624100,JATINDAS PARK,KJPK,NA,WEST BENGAL,B
22.60129860,88.37258580,SHYAMBAZAR ,KSHY,NA,WEST BENGAL,B
22.98675690,87.85497550,CENTRAL,KCEN,NA,WEST BENGAL,B
22.47350380,88.36087370,MASTARDA SURYASEN,KMSN,NA,WEST BENGAL,B
22.59602910,88.36528480,SOVABAZAR SUTANUTI,KSHO,NA,WEST BENGAL,B
22.60581320,88.38609970,BELGACHIA,KBEL,NA,WEST BENGAL,B
22.55469050,88.35026880,PARKSTREET,KPSK,NA,WEST BENGAL,B
17.41800000,78.52000000,ARTS COLLEGE,ATC,HYB,ANDHRA PRADESH,C
15.83246640,78.03246830,BHARATH NAGAR,BTNR,SC,ANDHRA PRADESH,C
13.62636690,79.43189160,BORABANDA,BRBD,SC,ANDHRA PRADESH,C
17.48736730,78.33267960,CHANDA NAGAR,CDNR,SC,ANDHRA PRADESH,C
15.91289980,79.73998750,DABIRPURA,DQR,HYB,ANDHRA PRADESH,C
17.33250460,78.47430640,FALAKNUMA,FM,HYB,ANDHRA PRADESH,C
15.91289980,79.73998750,FATHENAGAR BRIDGE,FNB,SC,ANDHRA PRADESH,C
16.52265900,80.61648800,HAFIZPETA,HFZ,SC,ANDHRA PRADESH,C
24.58088300,73.69197300,HI-TECH CITY,HTCY,SC,ANDHRA PRADESH,C
17.60172800,83.15582700,HUPPUGUDA,HPQ,HYB,ANDHRA PRADESH,C
14.68002270,77.60202470,JAMAI OSMANIA,JOO,HYB,ANDHRA PRADESH,C
17.43432400,78.49123580,JAMES STREET,JET,SC,ANDHRA PRADESH,C
17.41329830,78.46108720,KHAIRATABAD,KQD,SC,ANDHRA PRADESH,C
17.40621100,78.46315600,LAKDIKAPUL,LKPL,SC,ANDHRA PRADESH,C
15.91289980,79.73998750,MALAKPET,MXT,HYB,ANDHRA PRADESH,C
17.44571310,78.45225740,NATURE CURE HOSPITAL,NCHS,SC,ANDHRA PRADESH,C
17.42372840,78.46298760,NECKLACE ROAD,NLRD,SC,ANDHRA PRADESH,C
13.62834700,79.41997750,SANJEEVAIAH PARK,SJVP,SC,ANDHRA PRADESH,C
17.42806370,78.51965350,SITAPHALMANDI,STPD,HYB,ANDHRA PRADESH,C
16.51862490,80.61989770,VIDYA NAGAR,VAR,HYB,ANDHRA PRADESH,C
17.02096370,81.53567720,YAKUTPURA,YKA,HYB,ANDHRA PRADESH,C
19.17211080,72.95217560,AIROLI,AIRL,BB,MAHARASHTRA,C
18.64857560,73.76470230,AKURDI,AKRD,PA,MAHARASHTRA,C
19.21012000,73.18442070,AMBERNATH,ABH,BB,MAHARASHTRA,C
19.26781790,73.17171610,AMBIVLI,ABY,BB,MAHARASHTRA,C
19.43954510,73.30790770,ASANGAON,ASO,BB,MAHARASHTRA,C
19.50363080,73.32822110,ATGAON,ATG,BB,MAHARASHTRA,C
19.16706440,73.23907700,BADLAPUR,BUD,BB,MAHARASHTRA,C
18.72144530,73.69616730,BEGDEWADI,BGWI,PA,MAHARASHTRA,C
19.02522990,73.04139550,BELAPUR,BEPR,BB,MAHARASHTRA,C
19.14235720,72.93775170,BHANDUP,BND,BB,MAHARASHTRA,C
18.97001030,73.33153820,BHIVPURI ROAD,BVS,BB,MAHARASHTRA,C
18.97660170,72.83266580,BYCULLA,BY,BB,MAHARASHTRA,C
19.99186590,73.79882490,CHEMBUR,CMBR,BB,MAHARASHTRA,C
18.98685740,72.83279640,CHINCHPOKLI,CHG,BB,MAHARASHTRA,C
18.63987190,73.79182170,CHINCHWAD,CCH,PA,MAHARASHTRA,C
19.08056650,72.84769040,CHUNNABHATTI,CHF,BB,MAHARASHTRA,C
18.98649260,72.84328590,COTTON GREEN,CTGN,BB,MAHARASHTRA,C
18.99409220,72.83285310,CURREY ROAD,CRD,BB,MAHARASHTRA,C
18.58154760,73.83261230,DAPODI,DAPD,PA,MAHARASHTRA,C
18.68046960,73.73427060,DEHU ROAD,DEHR,PA,MAHARASHTRA,C
19.20397880,73.87483230,DIWA,DW,BB,MAHARASHTRA,C
18.96638110,72.84420900,DOCK YARD RD,DKRD,BB,MAHARASHTRA,C
19.01343170,72.83576940,DOLAVLI,DLV,BB,MAHARASHTRA,C
19.21832800,73.08682680,DOMBIVLI,DI,BB,MAHARASHTRA,C
19.11647170,73.00685830,GHANSOLI,GNSL,BB,MAHARASHTRA,C
19.08564910,72.90822070,GHATKOPAR,GC,BB,MAHARASHTRA,C
18.72144530,73.69616730,GHORAWADI,GRWD,PA,MAHARASHTRA,C
19.04152800,72.86473200,GOVANDI,GV,BB,MAHARASHTRA,C
19.03796900,72.86547180,GURU TEG BAHADUR NAGAR,GTBN,BB,MAHARASHTRA,C
19.05075900,72.91726500,JUINAGAR,JNJ,BB,MAHARASHTRA,C
19.19531730,72.99671040,KALVA,KLVA,BB,MAHARASHTRA,C
18.76682420,73.55230290,KAMSHET,KMST,PA,MAHARASHTRA,C
17.71955160,73.39681360,KANJURMARG,KJRD,BB,MAHARASHTRA,C
18.91152930,73.32090350,KARJAT,KJT,BB,MAHARASHTRA,C
19.64834380,73.47307930,KASARA,KSRA,BB,MAHARASHTRA,C
18.60776250,73.82106400,KASARWADI,KSWD,PA,MAHARASHTRA,C
18.84537900,73.31880500,KELAVLI,KLY,BB,MAHARASHTRA,C
19.35671230,73.21892900,KHADAVLI,KDV,BB,MAHARASHTRA,C
18.56318060,73.84061980,KHADKI,KK,PA,MAHARASHTRA,C
19.01006980,73.11183630,KHANDESHWAR,KNDS,BB,MAHARASHTRA,C
19.58043320,73.39398620,KHARDI,KE ,BB,MAHARASHTRA,C
19.02650000,73.05950000,KHARGAR,KHAG,BB,MAHARASHTRA,C
19.14866390,72.83244570,KHOPOLI,KHPI,BB,MAHARASHTRA,C
19.03228100,72.85721500,KING'S CIRCLE,KCE,BB,MAHARASHTRA,C
19.21072770,73.07691080,KOPAR  ,KOPR,BB,MAHARASHTRA,C
19.10305600,73.01055600,KOPARKHAIRANE,KHPN,BB,MAHARASHTRA,C
19.06572270,72.87931570,KURLA,CLA,BB,MAHARASHTRA,C
19.75147980,75.71388840,LOWJI,LWJ,BB,MAHARASHTRA,C
18.74426000,73.48092100,MALAVALI,MVL,PA,MAHARASHTRA,C
19.75147980,75.71388840,MANKHURD,MNKD,BB,MAHARASHTRA,C
19.01655760,73.08069490,MANSAROVAR,MANR,BB,MAHARASHTRA,C
18.95199280,72.83827060,MASJID,MSD,BB,MAHARASHTRA,C
19.02697910,72.85597880,MATUNGA,MTN,BB,MAHARASHTRA,C
19.15651090,72.96377280,MULUND,MLND,BB,MAHARASHTRA,C
19.75147980,75.71388840,MUMBRA,MBQ,BB,MAHARASHTRA,C
19.15465970,72.94665640,NAHUR,NHU,BB,MAHARASHTRA,C
19.02675460,73.31822900,NERAL,NRL,BB,MAHARASHTRA,C
19.02867740,73.01884150,NERUL,NEU,BB,MAHARASHTRA,C
18.88442440,73.32077010,PALASDHARI,PDI,BB,MAHARASHTRA,C
18.99598220,72.83041570,PAREL,PR,BB,MAHARASHTRA,C
18.62344720,73.80211410,PIMPRI,PMP,PA,MAHARASHTRA,C
20.54568140,74.53891910,RABALE,RABE,BB,MAHARASHTRA,C
18.97718400,72.84421400,REAY ROAD,RRD,BB,MAHARASHTRA,C
18.96094100,72.83938600,SANDHURST ROAD,SNRD,BB,MAHARASHTRA,C
14.13486640,78.51977990,SANPADA,SNCR,BB,MAHARASHTRA,C
19.02197940,73.01931330,SEAWOOD DHARAVE,SWDV,BB,MAHARASHTRA,C
18.99887460,72.85453730,SEWRI,SVE,BB,MAHARASHTRA,C
19.24418840,73.15843050,SHAHAD,SHD,BB,MAHARASHTRA,C
19.06341580,73.31776600,SHELU,SHLU,BB,MAHARASHTRA,C
18.53222530,73.85179610,SHIVAJINAGAR,SVJR,PA,MAHARASHTRA,C
19.04721930,72.86380690,SION,SIN,BB,MAHARASHTRA,C
18.73507950,73.67248680,TALEGAON,TGN,PA,MAHARASHTRA,C
19.22568890,73.09702590,THAKURLI,THK,BB,MAHARASHTRA,C
19.06581870,72.88999270,TILAKNAGAR,TKNG,BB,MAHARASHTRA,C
19.29593000,73.20376400,TITWALA,TLA,BB,MAHARASHTRA,C
19.07621750,73.01769990,TURBHE,TUH,BB,MAHARASHTRA,C
19.23028090,73.14911590,ULHASNAGAR,ULNR,BB,MAHARASHTRA,C
19.01614460,72.85896890,VADALA RD.,VDLR,BB,MAHARASHTRA,C
18.74239150,73.63690670,VADGAON,VDN,PA,MAHARASHTRA,C
19.09440380,73.30072220,VANGANI,VGI,BB,MAHARASHTRA,C
19.06306060,72.99890480,VASHI,VSH,BB,MAHARASHTRA,C
19.40659890,73.26759810,VASIND,VSD,BB,MAHARASHTRA,C
19.08022040,72.89834480,VIDYAVIHAR,VVH,BB,MAHARASHTRA,C
19.11299830,72.93199880,VIKHROLI,VK,BB,MAHARASHTRA,C
21.12439690,79.05292980,VITHALWADI,VLDI,BB,MAHARASHTRA,C
19.05467200,72.83797700,ANDHERI,ADH,MUMBAI CENTRAL,MAHARASHTRA,C
19.06171430,72.84398640,BANDRA,BA,MUMBAI CENTRAL,MAHARASHTRA,C
19.31047640,72.85306290,BHAYANDER,BYR,MUMBAI CENTRAL,MAHARASHTRA,C
19.79848080,72.76157430,BOISAR,BOR,MUMBAI CENTRAL,MAHARASHTRA,C
19.22942660,72.85699360,BORIVALI,BVI,MUMBAI CENTRAL,MAHARASHTRA,C
18.95204060,72.81810690,CHARNI ROAD,CYR,MUMBAI CENTRAL,MAHARASHTRA,C
18.93304590,72.82739890,CHURCHGATE,CCG,MUMBAI CENTRAL,MAHARASHTRA,C
19.01804350,72.84361950,DADAR,DDR,MUMBAI CENTRAL,MAHARASHTRA,C
19.99152870,72.74351510,DAHANU ROAD,DRD,MUMBAI CENTRAL,MAHARASHTRA,C
19.10646700,72.90157490,DAHISAR,DIC,MUMBAI CENTRAL,MAHARASHTRA,C
19.00746920,72.83594240,ELPHINSTONE RD,EPR,MUMBAI CENTRAL,MAHARASHTRA,C
19.16457270,72.84925860,GOREGAON,GMN,MUMBAI CENTRAL,MAHARASHTRA,C
18.96337870,72.81584390,GRANT ROAD,GTR,MUMBAI CENTRAL,MAHARASHTRA,C
19.13648930,72.84887090,JOGESHWARI,JOS,MUMBAI CENTRAL,MAHARASHTRA,C
19.20451590,72.85200950,KANDIVLI,KILE,MUMBAI CENTRAL,MAHARASHTRA,C
19.62474860,72.79103800,KELWE ROAD,KLV,MUMBAI CENTRAL,MAHARASHTRA,C
19.06984280,72.84028560,KHAR ROAD,KHAR,MUMBAI CENTRAL,MAHARASHTRA,C
18.99598220,72.83041570,LOWER PAREL,PL,MUMBAI CENTRAL,MAHARASHTRA,C
18.98188380,72.82380300,MAHALAKSMI,MX,MUMBAI CENTRAL,MAHARASHTRA,C
19.04090900,72.84601000,MAHIM,MM,MUMBAI CENTRAL,MAHARASHTRA,C
19.18722500,72.84899800,MALAD,MDD,MUMBAI CENTRAL,MAHARASHTRA,C
18.94472040,72.82431700,MARINE LINES,MEL,MUMBAI CENTRAL,MAHARASHTRA,C
19.02839520,72.84679380,MATUNGA ROAD,MRU,MUMBAI CENTRAL,MAHARASHTRA,C
19.29081130,72.87074030,MIRA ROAD,MIRA,MUMBAI CENTRAL,MAHARASHTRA,C
18.97037720,72.81893380,MUMBAI CENTRAL(LOCAL),BCL,MUMBAI CENTRAL,MAHARASHTRA,C
19.38372490,72.82675450,NAIGAON,NIG,MUMBAI CENTRAL,MAHARASHTRA,C
19.41677190,72.81005030,NALLASOPARA,NSP,MUMBAI CENTRAL,MAHARASHTRA,C
19.69776410,72.77197860,PALGHAR,PLG,MUMBAI CENTRAL,MAHARASHTRA,C
19.08255520,72.84176270,SANTACRUZ,STC,MUMBAI CENTRAL,MAHARASHTRA,C
19.57707810,72.82174750,SAPHALE,SAH,MUMBAI CENTRAL,MAHARASHTRA,C
19.38243950,72.83215280,VAITARNA ROAD,VTN,MUMBAI CENTRAL,MAHARASHTRA,C
19.88274770,72.76347910,VANGAON,VGN,MUMBAI CENTRAL,MAHARASHTRA,C
19.38243950,72.83215280,VASAI ROAD,BSR,MUMBAI CENTRAL,MAHARASHTRA,C
19.09953220,72.84396360,VILE PARLE,VLP,MUMBAI CENTRAL,MAHARASHTRA,C
19.45497930,72.81194770,VIRAR,VR,MUMBAI CENTRAL,MAHARASHTRA,C
13.11397370,80.15343190,AMBATTUR                           ,ABU  ,MAS,TAMIL NADU,C
13.11637700,80.12687290,ANNANUR(HALT)                      ,ANNR ,MAS,TAMIL NADU,C
13.30427410,80.23092390,ANUPPAMPATTU(FLAG)                 ,APB  ,MAS,TAMIL NADU,C
13.26090380,80.28960980,ATTHIPATTU(FLAG)                   ,AIP  ,MAS,TAMIL NADU,C
13.24946510,80.29960140,ATTIPATTUPUDUNAGAR(HALT)           ,AIPP ,MAS,TAMIL NADU,C
13.11802990,80.10065530,AVADI                              ,AVD  ,MAS,TAMIL NADU,C
13.10260400,80.27131300,BASIN BRIDGE JN                    ,BBQ  ,MAS,TAMIL NADU,C
13.09130640,80.29222440,CHENNAI BEACH                      ,MSB  ,MAS,TAMIL NADU,C
12.72844420,77.83138630,CHENNAI CHETPET(FLAG)              ,MSC  ,MAS,TAMIL NADU,C
13.08371540,80.28329320,CHENNAI FORT(FLAG)                 ,MSF  ,MAS,TAMIL NADU,C
13.08055000,80.27316200,CHENNAI PARK                       ,MPK  ,MAS,TAMIL NADU,C
13.11692220,80.18879860,CHEPAUK                            ,MCPK ,MAS,TAMIL NADU,C
11.12712250,78.65689420,CHINTARIPET                        ,MCPT ,MAS,TAMIL NADU,C
12.95100980,80.14072020,CHROMPET(FLAG)                     ,CMP  ,MAS,TAMIL NADU,C
11.12712250,78.65689420,E-DEPOT                            ,EDEP ,MAS,TAMIL NADU,C
13.10703190,79.88421790,EGATTUR(HALT)                      ,EGTR ,MAS,TAMIL NADU,C
13.20266480,80.31086480,ENNORE                             ,ENR  ,MAS,TAMIL NADU,C
12.96724390,80.22033390,GREENWAYS ROAD(FLAG)               ,GWYR ,MAS,TAMIL NADU,C
11.12712250,78.65689420,GUINDY                             ,GDY  ,MAS,TAMIL NADU,C
13.40694830,80.11029980,GUMMIDIPUNDI                       ,GPD  ,MAS,TAMIL NADU,C
13.11862460,80.07490000,HINDU COLLEGE(HALT)                ,HC   ,MAS,TAMIL NADU,C
12.99647100,80.24976400,INDIRANAGAR(FLAG)                  ,INDR ,MAS,TAMIL NADU,C
10.40144560,79.49926790,KADAMBATTUR                        ,KBT  ,MAS,TAMIL NADU,C
11.12712250,78.65689420,KASTURIBANAGAR(FLAG)               ,KTBR ,MAS,TAMIL NADU,C
13.20416600,80.31668200,KATHIVAKKAM(FLAG)                  ,KAVM ,MAS,TAMIL NADU,C
13.36323700,80.14763950,KAVARIPETTAI                       ,KVP  ,MAS,TAMIL NADU,C
12.99765040,80.20086590,KODAMBAKKAM                        ,MKK  ,MAS,TAMIL NADU,C
13.11322650,80.18398350,KORATTUR(FLAG)                     ,KOTR ,MAS,TAMIL NADU,C
13.12032090,80.27857610,KORUKKUPET                         ,KOK  ,MAS,TAMIL NADU,C
11.12712250,78.65689420,KOTTURPURAM(FLAG)                  ,KTPM ,MAS,TAMIL NADU,C
13.04514950,80.27681640,LIGHT HOUSE(FLAG)                  ,MLHS ,MAS,TAMIL NADU,C
11.11282510,77.36995600,MANAVUR(FLAG)                      ,MAF  ,MAS,TAMIL NADU,C
10.81601610,78.69589450,MANDAIVELI(FLAG)                   ,MNDY ,MAS,TAMIL NADU,C
12.98522140,80.17626160,MEENAMBAKKAM                       ,MN   ,MAS,TAMIL NADU,C
13.28182600,80.25973500,MINJUR                             ,MJR  ,MAS,TAMIL NADU,C
13.09008930,80.27466650,MOORE MARKET COMPLEX,MMC1,MAS,TAMIL NADU,C
8.76148890,77.64936760,MOSUR(HALT)                        ,MSU  ,MAS,TAMIL NADU,C
13.26838200,80.27649900,NANDIYAMBAKKAM(HALT)               ,NPKM ,MAS,TAMIL NADU,C
13.12140470,80.04511000,NEMILICHERRY(HALT)                 ,NEC  ,MAS,TAMIL NADU,C
13.06582890,80.23279590,NUNGAMBAKKAM(FLAG)                 ,NBK  ,MAS,TAMIL NADU,C
12.96734800,80.15268900,PALLAVARAM                         ,PV   ,MAS,TAMIL NADU,C
11.12712250,78.65689420,PARK TOWN(FLAG)                    ,MPKT ,MAS,TAMIL NADU,C
13.13648100,80.05980600,PATTABIRAM MILITARY SIDING(FLAG)   ,PTMS ,MAS,TAMIL NADU,C
13.11885580,80.06528390,PATTABIRAM(FLAG)                   ,PAB  ,MAS,TAMIL NADU,C
13.05598200,80.22904900,PATTRAVAKKAM(FLAG)                 ,PVM  ,MAS,TAMIL NADU,C
10.99814030,76.96994930,PAZHAVANTHANGAL(FLAG)              ,PZA  ,MAS,TAMIL NADU,C
13.10730230,80.23890700,PERAMBUR CARRIAGE WORKS(FLAG)      ,PCW  ,MAS,TAMIL NADU,C
13.10841400,80.22570310,PERAMBUR LOCO WORKS(FLAG)          ,PLW  ,MAS,TAMIL NADU,C
12.97534360,80.23136450,PERUNGUDI                          ,PRGD ,MAS,TAMIL NADU,C
13.33238830,80.19891850,PONNERI                            ,PON  ,MAS,TAMIL NADU,C
12.97224210,79.13841520,PULIAMANAGALAM(HALT)               ,PLMG ,MAS,TAMIL NADU,C
13.12330010,79.93760170,PUTLUR(HALT)                       ,PTLR ,MAS,TAMIL NADU,C
13.10399300,80.29372700,ROYAPURAM(HALT)                    ,RPM  ,MAS,TAMIL NADU,C
13.02230620,80.22502620,SAIDAPET                           ,SP   ,MAS,TAMIL NADU,C
13.09453520,79.83550530,SENJIPANAMPAKKAM(HALT)             ,SPAM ,MAS,TAMIL NADU,C
13.12500910,79.96656860,SEVVAPET ROAD                      ,SVR  ,MAS,TAMIL NADU,C
13.00505600,80.19330600,ST.THOMASMOUNT                     ,STM  ,MAS,TAMIL NADU,C
12.92591770,80.11811980,TAMBARAM SANITORIUM(FLAG)          ,TBMS ,MAS,TAMIL NADU,C
11.12712250,78.65689420,TARAMANI                           ,TRMN ,MAS,TAMIL NADU,C
13.13085990,80.13082400,THIRUMULLAIVOIL(HALT)              ,TMVL ,MAS,TAMIL NADU,C
13.12140470,80.04511000,THIRUNINTRAVUR                     ,TI   ,MAS,TAMIL NADU,C
13.03476650,80.26697240,TIRUMAYILAI                        ,MTMY ,MAS,TAMIL NADU,C
12.98007300,80.16575900,TIRUSULAM(FLAG)                    ,TLM  ,MAS,TAMIL NADU,C
13.13058820,79.77937330,TIRUVALANGADU                      ,TO   ,MAS,TAMIL NADU,C
11.12712250,78.65689420,TIRUVALLIKENI(FLAG)                ,MTCN ,MAS,TAMIL NADU,C
12.98957600,80.25131800,TIRUVANMIYUR                       ,TYMR ,MAS,TAMIL NADU,C
13.15886930,80.29595520,TIRUVOTTIYUR                       ,TVT  ,MAS,TAMIL NADU,C
13.12739970,80.28164880,TONDIARPET(FLAG)                   ,TNP  ,MAS,TAMIL NADU,C
12.96724390,80.22033390,VELACHERI                          ,VLCY ,MAS,TAMIL NADU,C
13.12379820,79.99859320,VEPPAMBATTU(FLAG)                  ,VEU  ,MAS,TAMIL NADU,C
13.11015710,80.20900770,VILLIVAKKAM                        ,VLK  ,MAS,TAMIL NADU,C
13.14052700,80.28765500,VOC NAGAR(HALT)                    ,VOCN ,MAS,TAMIL NADU,C
13.10890550,80.25743170,VYASARPADI JEEVA(FLAG)             ,VJM  ,MAS,TAMIL NADU,C
13.10871700,80.28798400,WASHERMANPET                       ,WST  ,MAS,TAMIL NADU,C
13.18068950,80.30593880,WIMCO NAGAR(FLAG)                  ,WCN  ,MAS,TAMIL NADU,C
22.95448630,88.37925760,ADISAPTAGRAM,ADST,HWH,WEST BENGAL,C
22.68299640,88.38535650,AGARPARA,AGP,SDAH,WEST BENGAL,C
23.58115160,88.22661190,AGRADWIP,AGAE,HWH,WEST BENGAL,C
22.54795970,88.36171510,AKRA,AQR,SDAH,WEST BENGAL,C
23.21337150,88.35332490,AMBIKAKALNA,ABKA,HWH,WEST BENGAL,C
23.17369680,88.56823360,ARANGHATA,AG,SDAH,WEST BENGAL,C
22.82651280,88.62859350,ASOKENAGAR,ASKR,SDAH,WEST BENGAL,C
22.56733210,88.37086250,BADKULLA,BDZ,SDAH,WEST BENGAL,C
22.88444870,88.01344870,BAGBAZAR,BBR,SDAH,WEST BENGAL,C
22.48275160,88.38666070,BAGHAJATIN,BGJT,SDAH,WEST BENGAL,C
22.98675690,87.85497550,BAGILA,BGF,HWH,WEST BENGAL,C
23.24137890,88.32951130,BAGNAPARA,BGRA,HWH,WEST BENGAL,C
23.33274460,88.64434050,BAGULA,BGL,SDAH,WEST BENGAL,C
22.20305080,88.44337290,BAHARU,BARU,SDAH,WEST BENGAL,C
22.85246860,88.06931410,BAHIRKHANDA,BAHW,HWH,WEST BENGAL,C
22.33604000,87.32602570,BAIDYABATI,BBAE,HWH,WEST BENGAL,C
23.10659200,88.21618800,BAINCHIGRAM,BCGM,HWH,WEST BENGAL,C
22.33604000,87.32602570,BALAGARH,BGAE,HWH,WEST BENGAL,C
22.80824830,88.21155660,BALARAMBATI,BLAE,HWH,WEST BENGAL,C
22.65598150,88.34057590,BALLY,BLY,HWH,WEST BENGAL,C
22.51952990,88.37209660,BALLYGANG JN.,BLN,SDAH,WEST BENGAL,C
22.65253930,88.34831580,BALLYGHAT,BLYG,SDAH,WEST BENGAL,C
22.56733210,88.37086250,BAMANGACHI,BMG,SDAH,WEST BENGAL,C
26.70838180,88.42687410,BANPUR,BPN,SDAH,WEST BENGAL,C
22.95730540,88.39538190,BANSBARIA,BSAE,HWH,WEST BENGAL,C
22.65360830,88.37823760,BARANAGAR,BARN,SDAH,WEST BENGAL,C
22.72405060,88.48374630,BARASAT JN  ,BT,SDAH,WEST BENGAL,C
22.75002280,88.37169470,BARRACKPORE ,BP,SDAH,WEST BENGAL,C
22.76728510,88.23681440,BARUIPARA,BRPA,HWH,WEST BENGAL,C
22.36592020,88.43121430,BARUIPUR JN ,BRP,SDAH,WEST BENGAL,C
22.56733210,88.37086250,BASIRHAT ,BSHT,SDAH,WEST BENGAL,C
22.20422360,88.23572590,BASULDANGA,BSD,SDAH,WEST BENGAL,C
22.57662600,88.34659600,BBD BAG,BBDB,SDAH,WEST BENGAL,C
22.73794840,88.25543110,BEGAMPUR,BPAE,HWH,WEST BENGAL,C
22.48705220,88.31317160,BEHULA,BHLA,HWH,WEST BENGAL,C
24.16887390,88.28563260,BELANAGAR,BZL,HWH,WEST BENGAL,C
23.52106610,88.28411310,BELERHAT,BQY,HWH,WEST BENGAL,C
22.98675690,87.85497550,BELGHARIA,BLH,SDAH,WEST BENGAL,C
22.93291000,88.15239600,BELMURI,BMAE,HWH,WEST BENGAL,C
22.63622300,88.33996100,BELUR,BEQ,HWH,WEST BENGAL,C
22.63107200,88.35143100,BELUR MATH,BRMH,HWH,WEST BENGAL,C
22.82748230,88.34141680,BHADRESWAR,BHR,HWH,WEST BENGAL,C
22.98675690,87.85497550,BHANDERTIKURI,BFZ,HWH,WEST BENGAL,C
22.66523450,88.65834830,BHASILA,BSLA,SDAH,WEST BENGAL,C
22.59120200,88.39059660,BIDHANNAGAR ROAD,BNXR,SDAH,WEST BENGAL,C
22.56733210,88.37086250,BIDYADHAR PUR,BDYP,SDAH,WEST BENGAL,C
22.64701780,88.43767570,BIMAN BANDAR,BNBA,SDAH,WEST BENGAL,C
22.78975440,88.57221910,BIRA,BZRA,SDAH,WEST BENGAL,C
22.72755440,88.37735330,BIRATI,BBT,SDAH,WEST BENGAL,C
22.56733210,88.37086250,BIRNAGAR,BIJ,SDAH,WEST BENGAL,C
22.67654670,88.43473300,BISOREPARA  KODALIA,BRPK,SDAH,WEST BENGAL,C
23.11939300,88.19667850,BOINCHI,BOI,HWH,WEST BENGAL,C
23.03033000,88.83256400,BANGAON  JN.,BNJ,SDAH,WEST BENGAL,C
22.51765340,88.30154870,BRACE-BRIDGE,BRJ,SDAH,WEST BENGAL,C
22.51819730,88.28031290,BUDGEBUDGE  ,BGB,SDAH,WEST BENGAL,C
22.59045140,88.35129170,BURRABAZAR,BZB,SDAH,WEST BENGAL,C
22.56733210,88.37086250,CANNING ,CG,SDAH,WEST BENGAL,C
22.98675690,87.85497550,CHAKDAHA,CDH,SDAH,WEST BENGAL,C
22.98675690,87.85497550,CHAMPA PUKUR,CQR,SDAH,WEST BENGAL,C
22.56733210,88.37086250,CHAMPAHATI,CHT,SDAH,WEST BENGAL,C
22.58396200,88.21500100,CHANDANNAGAR,CGR,HWH,WEST BENGAL,C
22.88077070,88.17598200,CHANDANPUR,CDAE,HWH,WEST BENGAL,C
23.03033000,88.83256400,CHANDPARA,CDP,SDAH,WEST BENGAL,C
22.89106850,88.37055960,CHUCHURA,CNS,HWH,WEST BENGAL,C
23.60128080,88.17037610,DAINHAT,DHAE,HWH,WEST BENGAL,C
22.56733210,88.37086250,DAKHINESWAR,DAKE,SDAH,WEST BENGAL,C
22.22657080,88.45260140,DAKSHIN BARASAT,DBT,SDAH,WEST BENGAL,C
22.56733210,88.37086250,DAKSHIN DURGAPUR,DKDP,SDAH,WEST BENGAL,C
22.67805100,88.29070700,DANKUNI ,DKAE,HWH,WEST BENGAL,C
22.98675690,87.85497550,DEARAH,DEH,HWH,WEST BENGAL,C
23.14409200,88.15655760,DEBIPUR,DBP,HWH,WEST BENGAL,C
22.21456520,88.28116640,DEULA,D,SDAH,WEST BENGAL,C
22.50831800,88.36754200,DHAKURIA ,DHK,SDAH,WEST BENGAL,C
22.56733210,88.37086250,DHAMUAH ,DMU,SDAH,WEST BENGAL,C
22.31634390,88.46019740,DHAPDHOPI,DPDP,SDAH,WEST BENGAL,C
23.26922220,88.31651150,DHATRIGRAM,DTAE,HWH,WEST BENGAL,C
22.48642190,88.31277720,DIAMOND HARBOUR RD,DH,SDAH,WEST BENGAL,C
22.63697140,88.41233880,DUMDUM CANT.,DDC,SDAH,WEST BENGAL,C
22.62113090,88.39310580,DUMDUM JN  ,DDJ,SDAH,WEST BENGAL,C
23.03996920,88.43227380,DUMURDAHA,DMLE,HWH,WEST BENGAL,C
22.52871910,88.34733280,DURGANAGAR,DGNR,SDAH,WEST BENGAL,C
22.98675690,87.85497550,DUTTAPUKUR,DTK,SDAH,WEST BENGAL,C
22.56508370,88.33932910,EDEN GARDEN,EDG,SDAH,WEST BENGAL,C
23.17369680,88.56823360,GANGNAPUR,GGP,SDAH,WEST BENGAL,C
23.22352720,87.92727540,GANGPUR,GRP,HWH,WEST BENGAL,C
22.47194460,88.39910750,GARIA,GIA,SDAH,WEST BENGAL,C
22.68669380,88.38626270,GARIFA,GFAE,HWH,WEST BENGAL,C
22.56733210,88.37086250,GEDE,GXD,SDAH,WEST BENGAL,C
22.36808930,88.55264410,GHUTIARISHARIF ,GOF,SDAH,WEST BENGAL,C
22.87957600,88.76089880,GOBORDANGA,GBG,SDAH,WEST BENGAL,C
22.58361150,88.34201610,GOBRA,GBRA,HWH,WEST BENGAL,C
22.27804800,88.45852100,GOCHARAN,GCN,SDAH,WEST BENGAL,C
26.68425670,88.44280150,GOKULNAGAR JAIPUR,GNJP,HWH,WEST BENGAL,C
23.05991110,88.75969830,GOPALNAGAR,GN,SDAH,WEST BENGAL,C
22.60933520,88.24552820,GUMA,GMA,SDAH,WEST BENGAL,C
23.19773120,88.41709720,GUPTIPARA,GPAE,HWH,WEST BENGAL,C
22.98675690,87.85497550,GURAP,GRAE,HWH,WEST BENGAL,C
22.19970800,88.21579300,GURUDASNAGAR,GURN,SDAH,WEST BENGAL,C
22.56733210,88.37086250,HABIBPUR,HBE,SDAH,WEST BENGAL,C
22.84087400,88.65738500,HABRA,HB,SDAH,WEST BENGAL,C
22.56733210,88.37086250,HALISAHAR,HLR,SDAH,WEST BENGAL,C
22.06595340,88.08732830,HARIPAL,HPL,HWH,WEST BENGAL,C
22.66210020,88.69045100,HARUA ROAD,HRO,SDAH,WEST BENGAL,C
22.57122390,88.91341440,HASNABAD,HNB,SDAH,WEST BENGAL,C
23.13946710,88.15477420,HAZIGARH,HIH,HWH,WEST BENGAL,C
22.63909500,88.42800300,HINDMOTOR,HMZ,HWH,WEST BENGAL,C
22.90570970,88.37637630,HOOGHLY,HGY,HWH,WEST BENGAL,C
22.90478700,88.39644400,HOOGHLYGHAT,HYG,HWH,WEST BENGAL,C
22.56676670,88.37642060,HOTOR,HT,SDAH,WEST BENGAL,C
22.71054150,88.46961130,HRIDAYPUR,HHR,SDAH,WEST BENGAL,C
22.56733210,88.37086250,ICHHAPUR,IP,SDAH,WEST BENGAL,C
22.51824440,88.36557310,JADAVPUR,JDP,SDAH,WEST BENGAL,C
22.98675690,87.85497550,JAGADDAL,JGDL,SDAH,WEST BENGAL,C
22.72218740,88.26477210,JANAI ROAD,JOX,HWH,WEST BENGAL,C
23.07859670,88.08080970,JAUGRAM,JRAE,HWH,WEST BENGAL,C
23.06396330,88.09107180,JHAPANDANGA,JPQ,HWH,WEST BENGAL,C
21.91267300,87.51237970,JIRAT,JIT,HWH,WEST BENGAL,C
22.16908470,88.41571560,JOYNAGAR MOJILPUR ,JNM,SDAH,WEST BENGAL,C
22.75403210,88.33855520,KAIKALA,KKAE,HWH,WEST BENGAL,C
21.87996720,88.19382770,KAKDWIP,KWDP,SDAH,WEST BENGAL,C
22.50192670,88.39767000,KALIKAPUR,KLKR,SDAH,WEST BENGAL,C
23.36403310,88.33115320,KALINAGAR,KALN,HWH,WEST BENGAL,C
23.20834550,88.57261180,KALINARAYANPUR JN.,KLNP,SDAH,WEST BENGAL,C
22.98771870,88.42793120,KALYANI,KYI,SDAH,WEST BENGAL,C
22.98185150,88.43953930,KALYANI GHOSHPARA,KLYG,SDAH,WEST BENGAL,C
22.98675690,87.85497550,KALYANI SILPANCHAL,KLYS,SDAH,WEST BENGAL,C
22.98771870,88.42793120,KALYANI SIMANTA,KLYM,SDAH,WEST BENGAL,C
22.56733210,88.37086250,KALYANPUR ,KYP,SDAH,WEST BENGAL,C
22.94452840,88.45385230,KANCHRAPARA,KPA,SDAH,WEST BENGAL,C
22.86666960,88.40541840,KANKINARA,KNR,SDAH,WEST BENGAL,C
21.90532650,88.20119530,KASHINAGAR HALT,KHGR,SDAH,WEST BENGAL,C
23.64027470,88.12292680,KATWA,KWAE,HWH,WEST BENGAL,C
23.05431380,88.44400640,KHAMARGACHI,KMAE,HWH,WEST BENGAL,C
23.04672800,88.31538900,KHANYAN,KHN,HWH,WEST BENGAL,C
22.56733210,88.37086250,KHARDAH,KDH,SDAH,WEST BENGAL,C
25.26126880,88.10350780,KONNAGAR,KOG,HWH,WEST BENGAL,C
23.38871900,88.49350830,KRISHNANAGAR CITY,KNJ,SDAH,WEST BENGAL,C
23.01644230,88.41288760,KUNTIGHAT,KJU,HWH,WEST BENGAL,C
22.90570970,88.37637630,LAKE GARDEN,LKF,SDAH,WEST BENGAL,C
22.98675690,87.85497550,LAKSHMI KANTAPUR,LKPR,SDAH,WEST BENGAL,C
22.56733210,88.37086250,LAXKSHIPUR,LKX,HWH,WEST BENGAL,C
22.62084080,88.33937020,LILLUAH,LLH,HWH,WEST BENGAL,C
22.70053000,88.37580100,LOKNATH,LOK,HWH,WEST BENGAL,C
22.56733210,88.37086250,MADANPUR,MPJ,SDAH,WEST BENGAL,C
22.84496200,88.19289800,MADHUSUDHANPUR,MDSE,HWH,WEST BENGAL,C
22.69475700,88.45283210,MADHYAMGRAM,MMG,SDAH,WEST BENGAL,C
22.44612910,88.40288500,MAGRAHAT,MGT,SDAH,WEST BENGAL,C
22.58489790,88.33923280,MAJHDIA,MIJ,SDAH,WEST BENGAL,C
22.45415420,86.99828660,MAJHER GRAM,MAJ,SDAH,WEST BENGAL,C
22.51916500,88.32234300,MAJHER HAT,MJT,SDAH,WEST BENGAL,C
26.56684920,88.82207320,MALATIPUR,MPE,SDAH,WEST BENGAL,C
22.39736770,88.43333790,MALLIKPUR,MAK,SDAH,WEST BENGAL,C
23.25018930,87.86963140,MANKUNDU,MUU,HWH,WEST BENGAL,C
23.13569600,88.04225300,MASAGRAM,MSAE,HWH,WEST BENGAL,C
22.56733210,88.37086250,MASLANDAPUR,MSL,SDAH,WEST BENGAL,C
22.14074870,88.39083430,MATHURAPUR RD,MPRD,SDAH,WEST BENGAL,C
22.98675690,87.85497550,MEMARI,MYM,HWH,WEST BENGAL,C
22.79065000,88.22213100,MIRZAPUR BANKIPUR,MBE,HWH,WEST BENGAL,C
22.67625260,88.43675670,MOGRA,MUG,HWH,WEST BENGAL,C
23.39793770,88.35684390,NABADWIPDHAM ,NDAE,HWH,WEST BENGAL,C
23.25018930,87.86963140,NABAGRAM ,NBAE,HWH,WEST BENGAL,C
22.83028150,88.16678330,NALIKUL,NKL,HWH,WEST BENGAL,C
22.50788840,88.33324210,NAMKHANA,NAMKA,SDAH,WEST BENGAL,C
22.80512970,88.26242480,NASIBPUR,NSF,HWH,WEST BENGAL,C
22.56733210,88.37086250,NETRA ,NTA,SDAH,WEST BENGAL,C
22.51030140,88.33532550,NEW ALIPORE,NACC,SDAH,WEST BENGAL,C
22.64662790,88.43684850,NEWBARAKPORE,NBE,SDAH,WEST BENGAL,C
22.50624320,88.32732970,NISCHINDIPUR,NISH,SDAH,WEST BENGAL,C
22.56733210,88.37086250,NUNGI,NAI,SDAH,WEST BENGAL,C
23.17912650,88.00933980,PALLAROAD,PRAE,HWH,WEST BENGAL,C
22.56733210,88.37086250,PALPARA,PXR,SDAH,WEST BENGAL,C
23.19817700,88.00198200,PALSIT,PLAE,HWH,WEST BENGAL,C
22.78254600,88.37007200,PALTA,PTF,SDAH,WEST BENGAL,C
23.07079760,88.26976560,PANDUAH,PDA,HWH,WEST BENGAL,C
22.54041770,88.37391080,PARKCIRCUS ,PQS,SDAH,WEST BENGAL,C
22.51916500,88.32234300,PATIPUKUR,PTKR,SDAH,WEST BENGAL,C
23.54755320,88.25227850,PATULI,PTAE,HWH,WEST BENGAL,C
22.56733210,88.37086250,PAYRADANGA,PDX,SDAH,WEST BENGAL,C
23.94803290,87.67091350,PHULIA,FLU,SDAH,WEST BENGAL,C
26.68425670,88.44280150,PIALI,PLF,SDAH,WEST BENGAL,C
22.91679100,88.15961920,PORABAZAR,PBZ,HWH,WEST BENGAL,C
22.55532160,88.33112360,PRINCEPGHAT,PPGT,SDAH,WEST BENGAL,C
22.98675690,87.85497550,PURBASTHALI,PSAE,HWH,WEST BENGAL,C
23.17369680,88.56823360,RANAGHAT  ,RHA,SDAH,WEST BENGAL,C
23.25018930,87.86963140,RASULPUR,RSLR,HWH,WEST BENGAL,C
22.72616480,88.34358490,RISHRA ,RIS,HWH,WEST BENGAL,C
23.20711900,87.96917620,SAKTIGARH,SKG,HWH,WEST BENGAL,C
23.33557100,88.32462500,SAMUDRAGARH,SMAE,HWH,WEST BENGAL,C
21.83878500,88.31279230,SANGRAMPUR,SNU,SDAH,WEST BENGAL,C
22.49613730,88.37290100,SANTOSHPUR,SSP,SDAH,WEST BENGAL,C
22.56733210,88.37086250,SHANTIPUR,STB,SDAH,WEST BENGAL,C
22.34704710,88.43502470,SHASHANROAD,SSRD,SDAH,WEST BENGAL,C
22.77493730,88.32840380,SHEORAPHULI ,SHE,HWH,WEST BENGAL,C
22.97386590,88.13408770,SHIBAICHANDI,SHBC,HWH,WEST BENGAL,C
22.56733210,88.37086250,SHYAMNAGAR,SNR,SDAH,WEST BENGAL,C
26.75367550,88.44006010,SIMLAGARH,SLG,HWH,WEST BENGAL,C
22.56733210,88.37086250,SIMURALI,SMX,SDAH,WEST BENGAL,C
22.59363810,88.42691140,SINGUR,SIU,HWH,WEST BENGAL,C
27.00472590,88.45595700,SODPUR,SEP,SDAH,WEST BENGAL,C
23.13874480,88.43295360,SOMRABAZAR,SOAE,HWH,WEST BENGAL,C
22.44297980,88.43054410,SONARPUR,SPR,SDAH,WEST BENGAL,C
22.68182640,88.58225940,SONDALIA,SXC,SDAH,WEST BENGAL,C
22.75403210,88.33855520,SRIRAMPUR,SRP,HWH,WEST BENGAL,C
22.41368720,88.43425490,SUBHASGRAM,SBGR,SDAH,WEST BENGAL,C
22.29304240,88.46652750,SURJYAPUR,SJPR,SDAH,WEST BENGAL,C
23.26137500,88.53763600,TAHERPUR,THP,SDAH,WEST BENGAL,C
22.56733210,88.37086250,TAKIROAD,TKF,SDAH,WEST BENGAL,C
22.60740790,88.38168790,TALA,TALA,SDAH,WEST BENGAL,C
23.04672800,88.31538900,TALANDOO,TLO,HWH,WEST BENGAL,C
22.56733210,88.37086250,TALDI,TLX,SDAH,WEST BENGAL,C
22.88251500,88.01409800,TARAKESWAR,TAK,HWH,WEST BENGAL,C
22.92475490,88.77787850,THAKURNAGAR,TKNR,SDAH,WEST BENGAL,C
22.74072900,88.37396240,TITAGARH,TGH,SDAH,WEST BENGAL,C
22.56733210,88.37086250,TOLLYGANGE,TLG,SDAH,WEST BENGAL,C
22.98675690,87.85497550,TRIBENI,TBAE,HWH,WEST BENGAL,C
22.66525250,88.34218210,UTTARPARA,UPA,HWH,WEST BENGAL,C
22.54780680,88.19948140,ABADA,ABB,KGP,WEST BENGAL,C
22.57569220,88.23982120,ANDUL,ADL,KGP,WEST BENGAL,C
22.46255620,87.96981410,BAGNAN,BZN,KGP,WEST BENGAL,C
22.35792830,87.55288300,BALICHAK,BCK,KGP,WEST BENGAL,C
22.50267330,88.16325980,BAURIA,BVA,KGP,WEST BENGAL,C
22.40194290,87.80964370,BHOGPUR,BOP,KGP,WEST BENGAL,C
22.47372440,88.05360790,BIRSHIBPUR,BSBP,KGP,WEST BENGAL,C
22.56922830,88.34619370,CHENGAIL,CGA,KGP,WEST BENGAL,C
22.59793160,88.30764230,DASNAGAR,DSNR,KGP,WEST BENGAL,C
23.77431830,86.82994670,DEULTI,DTE,KGP,WEST BENGAL,C
22.47719900,88.11422260,FULESWAR,FLR,KGP,WEST BENGAL,C
23.17444890,88.17952310,GHORAGHATA,GGTA,KGP,WEST BENGAL,C
22.36565880,87.65489270,HAUR,HAU,KGP,WEST BENGAL,C
22.36013420,88.46404940,KHIRAI,KHAI,KGP,WEST BENGAL,C
22.43444550,87.88017490,KOLAGHAT,KIG,KGP,WEST BENGAL,C
22.98675690,87.85497550,KULGACHIA,KGY,KGP,WEST BENGAL,C
22.41464190,87.85865340,MECHEDA,MCA,KGP,WEST BENGAL,C
22.58254270,88.26348090,MOURIGRAM,MRGM,KGP,WEST BENGAL,C
22.49798910,88.18299780,NALPUR,NALR,KGP,WEST BENGAL,C
22.98675690,87.85497550,NANDAIGAJAN,NDGJ,KGP,WEST BENGAL,C
22.39979340,87.77422390,NARAYAN PAKURIA MURAIL ,NPMR,KGP,WEST BENGAL,C
22.39317230,87.74265340,PANSKURA,PKU,KGP,WEST BENGAL,C
22.35666400,87.61330700,RADHAMOHANPUR,RDU,KGP,WEST BENGAL,C
22.58941200,88.29696200,RAMRAJATALA,RMJ,KGP,WEST BENGAL,C
23.69402080,87.12189790,SANKRAIL,SEL,KGP,WEST BENGAL,C
22.58308700,88.28329420,SANTRAGACHI,SRC,KGP,WEST BENGAL,C
22.59855610,88.32472810,TIKIAPARA,TPKR,KGP,WEST BENGAL,C
22.47224360,88.09384700,ULUBERIA,ULB,KGP,WEST BENGAL,C
18.31668330,83.57013190,CHIPURUPALLE,CPP,WAT,ANDHRA PRADESH,D
16.70996500,81.11023800,KOTABOMMALI,KBM,WAT,ANDHRA PRADESH,D
17.89169010,83.18591790,KOTTAVALASA,KTV,WAT,ANDHRA PRADESH,D
18.57919100,84.28328900,NAUPADA,NWP,WAT,ANDHRA PRADESH,D
18.77115470,83.42786640,PARVATIPURAM,PVP,WAT,ANDHRA PRADESH,D
18.78399410,83.43375530,PARVATIPURAM TOWN,PVPT,WAT,ANDHRA PRADESH,D
15.91289980,79.73998750,PONDURU,PDU,WAT,ANDHRA PRADESH,D
15.91289980,79.73998750,TILARU,TIU,WAT,ANDHRA PRADESH,D
16.58283900,81.36910640,AKIVIDU                                           ,AKVD,BZA       ,ANDHRA PRADESH,D
17.64016130,79.03625440,ALER                                              ,ALER,SC        ,ANDHRA PRADESH,D
16.93649540,81.95408920,ANAPARTI                                          ,APT ,BZA       ,ANDHRA PRADESH,D
19.05253390,79.48581210,BELLAMPALLI                                       ,BPA ,SC        ,ANDHRA PRADESH,D
17.52449600,78.89862500,BHONGIR                                           ,BG  ,SC        ,ANDHRA PRADESH,D
17.53333440,78.51526350,BOLARAM                                           ,BMO ,HYB       ,ANDHRA PRADESH,D
17.72463090,83.30957180,CUMBUM                                            ,CBM ,GNT       ,ANDHRA PRADESH,D
15.83387160,79.48455300,DONAKONDA                                         ,DKD ,GNT       ,ANDHRA PRADESH,D
15.91289980,79.73998750,DORNAKAL,DKJ,SC,ANDHRA PRADESH,D
16.92772610,81.92079110,DWARAPUDI                                         ,DWP ,BZA       ,ANDHRA PRADESH,D
17.55354560,82.85287810,ELAMANCHILI                                       ,YLM ,BZA       ,ANDHRA PRADESH,D
18.30972430,83.89813310,GADWAL,GWD,HYB       ,ANDHRA PRADESH,D
16.51862490,80.61989770,GHANPUR,GNP ,SC        ,ANDHRA PRADESH,D
15.37945410,78.92629040,GIDDALUR                                          ,GID ,GNT       ,ANDHRA PRADESH,D
17.00711000,81.77131530,GODAVARI                                          ,GVN ,BZA       ,ANDHRA PRADESH,D
15.17818090,77.10342410,JADCHERLA                                         ,JCL ,HYB       ,ANDHRA PRADESH,D
18.28999840,79.47675510,JAMIKUNTA                     ,JMKT,SC        ,ANDHRA PRADESH,D
14.68644620,77.58382650,JANGAON                                           ,ZN  ,SC        ,ANDHRA PRADESH,D
14.11462330,78.16549120,KADIRI                                            ,KRY ,GTL,ANDHRA PRADESH,D
16.55076270,81.21797470,KAIKALUR                                          ,KKLR,BZA       ,ANDHRA PRADESH,D
17.72220140,83.28926120,KESAMUDRAM                                        ,KDM ,SC        ,ANDHRA PRADESH,D
13.95690400,79.35056300,KODURU                                            ,KOU ,GTL,ANDHRA PRADESH,D
17.00698210,81.72670950,KOVVUR                                            ,KVR ,BZA       ,ANDHRA PRADESH,D
16.47700200,80.60567000,KRISHNA                                           ,KSN ,GTL,ANDHRA PRADESH,D
16.46968400,79.43841000,MACHERLA                                          ,MCLA,GNT       ,ANDHRA PRADESH,D
15.32839680,78.22328700,MADHIRA                                           ,MDR ,SC        ,ANDHRA PRADESH,D
17.36890300,78.48013300,MALKAJGIRI                                        ,MJF ,HYB       ,ANDHRA PRADESH,D
16.43771700,80.56457600,MANGALAGIRI                                       ,MAG ,GNT       ,ANDHRA PRADESH,D
17.89843820,80.81182360,MANUGURU                                          ,MUGR,SC        ,ANDHRA PRADESH,D
15.71490890,79.30297980,MARKAPUR ROAD                                     ,MRK ,GNT       ,ANDHRA PRADESH,D
16.86042250,79.53345010,MIRYALAGUDA                                       ,MRGA,GNT       ,ANDHRA PRADESH,D
16.95385990,82.24057090,MOULA ALI                                         ,MLY ,SC        ,ANDHRA PRADESH,D
14.68904400,78.39737800,MUDDANURU                                         ,MOO ,GTL,ANDHRA PRADESH,D
16.59015360,79.72314830,NADIKUDI,NDKD,GNT       ,ANDHRA PRADESH,D
16.22969480,80.03994270,NARASARAO PET                                     ,NRT ,GNT       ,ANDHRA PRADESH,D
17.45185200,82.72416800,NARSIPATNAM ROAD                                  ,NRP ,BZA       ,ANDHRA PRADESH,D
17.43418680,78.48702080,NEKONDA                                           ,NKD ,SC        ,ANDHRA PRADESH,D
16.06804090,80.55747320,NIDUBROLU                                         ,NDO ,BZA       ,ANDHRA PRADESH,D
13.45099550,79.11457350,PAKALA,PAK,GTL,ANDHRA PRADESH,D
16.25216350,81.14382330,PEDANA                                            ,PAV ,BZA       ,ANDHRA PRADESH,D
15.91289980,79.73998750,PEDDAPALLI                                        ,PDPL,SC        ,ANDHRA PRADESH,D
16.48033830,79.89088760,PIDUGURALLA                                       ,PGRL,GNT       ,ANDHRA PRADESH,D
15.83654590,78.06001780,PITHAPURAM                                        ,PAP ,BZA       ,ANDHRA PRADESH,D
16.71316610,81.10656890,POWERPET                                       ,PRH ,BZA       ,ANDHRA PRADESH,D
14.18525100,79.15292420,RAJAMPET                                          ,RJP ,GTL,ANDHRA PRADESH,D
16.01819820,80.82887860,REPALLE                                           ,RAL ,GNT       ,ANDHRA PRADESH,D
16.49361390,80.68378350,SANATNAGAR                                        ,SNF ,SC        ,ANDHRA PRADESH,D
16.24275440,80.05070720,SATTENAPALLE                                      ,SAP ,GNT       ,ANDHRA PRADESH,D
17.06483840,78.21302390,SHADNAGAR                                         ,SHNR,HYB       ,ANDHRA PRADESH,D
17.45049570,78.13070440,SHANKARPALLI                                      ,SKP ,SC        ,ANDHRA PRADESH,D
14.90857770,77.97742190,TADIPATRI                                         ,TU  ,GTL,ANDHRA PRADESH,D
16.95385990,82.24057090,UMDANAGAR                                         ,UR  ,HYB       ,ANDHRA PRADESH,D
14.40538070,79.95751980,VEDAYAPALEM                                       ,VDE ,BZA       ,ANDHRA PRADESH,D
13.94404020,79.60425150,VENKATAGIRI                                       ,VKI ,GTL,ANDHRA PRADESH,D
16.05062250,79.74783960,VINUKONDA                                         ,VKN ,GNT       ,ANDHRA PRADESH,D
16.54214110,81.63274850,VIRAVASARAM                                       ,VVM ,BZA       ,ANDHRA PRADESH,D
15.91289980,79.73998750,WANPARTHI ROAD                                    ,WPR ,HYB       ,ANDHRA PRADESH,D
22.57795210,88.36809900,ZAHIRABAD                                         ,ZB  ,SC        ,ANDHRA PRADESH,D
10.10803140,76.35711980,EKAMBARAKUPPAM(FLAG)               ,EKM  ,MAS,ANDHRA PRADESH,D
13.90802530,79.90151570,NAYUDUPETA                         ,NYP  ,MAS,ANDHRA PRADESH,D
13.43994170,79.55298320,PUTTUR                             ,PUT  ,MAS,ANDHRA PRADESH,D
13.69659420,80.01818940,SULLURUPETA                        ,SPE  ,MAS,ANDHRA PRADESH,D
12.74730750,78.33992710,KUPPAM,KPN ,SBC,ANDHRA PRADESH,D
14.10009020,77.59305920,PENUKONDA,PKD,SBC,ANDHRA PRADESH,D
27.15488480,95.27900970,BADARPUR  ,BPB,LMG,ASSAM,D
27.06356270,95.03227120,BHOJO,BOJ,TSK,ASSAM,D
26.07712110,89.95589710,BIJNI ,BJF,RNY,ASSAM,D
26.01939170,93.78016020,BOKAJAN,BXJ,LMG,ASSAM,D
26.20290680,92.51230860,CHAPARMUKH,CPK,LMG,ASSAM,D
26.02298380,89.97774590,DHUBRI,DBB,APDJ,ASSAM,D
26.20060430,92.93757390,DIGARU,DGU,LMG,ASSAM,D
27.38312520,95.61729400,DIGBOI,DBY,TSK,ASSAM,D
27.36666500,95.30670750,DULIAJAN,DJG,TSK,ASSAM,D
26.36485650,90.18623230,FAKIRAGRAM,FKM,APDJ,ASSAM,D
26.46446230,94.00187210,FURKATING,FKG,TSK,ASSAM,D
26.12698240,90.62099310,GOALPARA TOWN ,GLPT,RNY,ASSAM,D
26.20060430,92.93757390,GOLAGHAT,GLGT,TSK,ASSAM,D
26.42953010,89.97536700,GOSAIGAONHAT,GOGH,APDJ,ASSAM,D
24.69196630,92.54366670,HAILAKANDI,HKD,LMG,ASSAM,D
26.12538300,92.19750700,JAGIROAD,JID,LMG,ASSAM,D
26.20060430,92.93757390,KAMPUR,KWM,LMG,ASSAM,D
24.86027560,92.37270130,KARIMGANJ,KXJ,LMG,ASSAM,D
25.91479860,92.95809500,LANKA,LKA,LMG,ASSAM,D
27.29117690,95.73846190,LEDO,LLO,TSK,ASSAM,D
26.20060430,92.93757390,LOWER HALFLONG,LFG,LMG,ASSAM,D
27.48666300,95.44008800,MAKUM JN,MJN,TSK,ASSAM,D
26.84035680,80.93620820,MARGHERITA,MRG,TSK,ASSAM,D
27.18297100,94.91917550,MORANHAT,MRHT,TSK,ASSAM,D
26.20060430,92.93757390,NAHARKATIA,NHK,TSK,ASSAM,D
26.45100200,91.43909900,NALBARI ,NLV,RNY,ASSAM,D
26.11195030,92.86049110,NAMRUP,NAM,TSK,ASSAM,D
26.81080390,92.57754400,NEW MISAMARI ,NMM,RNY,ASSAM,D
27.25420220,94.11085990,NORTH LAKHIMPUR ,NLP,RNY,ASSAM,D
26.49718460,91.17760710,PATHSALA ,PBL,RNY,ASSAM,D
26.82139250,92.68255560,RANGAPARA NORTH,RPAN,RNY,ASSAM,D
26.20060430,92.93757390,SARUPATHAR,SZR,LMG,ASSAM,D
26.91756260,94.75588880,SIMALUGURI,SLGR,TSK,ASSAM,D
26.99020270,94.64317850,SIVASAGAR TOWN,SRTN,TSK,ASSAM,D
26.47167390,91.26781450,TIHU,TIHU,RNY,ASSAM,D
26.60180530,94.19962400,TITABAR,TTB,TSK,ASSAM,D
25.58205740,85.90005850,BACHWARA JN.,BCA,SEE,BIHAR,D
25.88512790,87.19306920,BANMANKHI JN.,BNKI,SPJ,BIHAR,D
25.28252240,86.01566770,BARAHIYA,BRYA,DNR,BIHAR,D
25.55877700,84.44872400,BIHIYA,BEA,DNR,BIHAR,D
25.56102800,84.87235800,BIHTA,BTA,DNR,BIHAR,D
25.62153150,85.06861910,CHANPATIYA,CAI,SPJ,BIHAR,D
25.90865430,86.78297250,DAURAM MADHEPURA,DMH,SPJ,BIHAR,D
25.66787070,85.40830490,DESARI,DES,SEE,BIHAR,D
25.97616580,85.56495960,DHOLI,DOL,SEE,BIHAR,D
28.68291690,77.22011890,DIGHWARA,DGA,SEE,BIHAR,D
25.09607420,85.31311940,EKANGARSARAI,EKR,DNR,BIHAR,D
25.50316860,85.30396810,FATUHA JN.,FUT,DNR,BIHAR,D
26.33278080,84.66722730,GIDHAUR,GHR,DNR,BIHAR,D
25.24152330,86.97251780,GORAUL,GRL,SEE,BIHAR,D
25.59787570,85.20456700,GULZARBAGH,GZH,DNR,BIHAR,D
24.81100790,84.79130070,GURARU,GRRU,MGS,BIHAR,D
25.86603770,86.25565190,HARI NAGAR,HIR,SPJ,BIHAR,D
25.37175510,85.54055380,HARNAUT,HRT,DNR,BIHAR,D
25.71484800,86.18588600,HASANPUR ROAD,HPO,SPJ,BIHAR,D
26.02080510,85.87875140,HAYAGHAT,HYT,SPJ,BIHAR,D
25.13737130,85.21701870,ISLAMPUR,IPR,DNR,BIHAR,D
26.46894820,85.70091270,JANAKPUR ROAD,JNR,SPJ,BIHAR,D
25.22437170,84.99006970,JEHANABAD,JHD,DNR,BIHAR,D
25.09607420,85.31311940,JEHANABAD COURT,JHDC,DNR,BIHAR,D
25.70241160,85.21556480,JHANJHARPUR JN.,JJP,SPJ,BIHAR,D
25.49772700,87.37583300,KARHAGOLA ROAD,CRR,SEE,BIHAR,D
26.48409230,86.16153350,KHAJAULI,KJI,SPJ,BIHAR,D
25.90636210,85.67209060,KHUDIRAMBOSE PUSA,KRBP,SEE,BIHAR,D
25.48537130,85.38756560,KHUSRO PUR,KOO,DNR,BIHAR,D
25.09607420,85.31311940,KUDRA,KTQ,MGS,BIHAR,D
25.09607420,85.31311940,KURSELA,KUE,SEE,BIHAR,D
19.17664200,72.85773190,LAHERIASARAI,LSI,SPJ,BIHAR,D
25.41652560,86.20568160,LAKHO,LAK,SEE,BIHAR,D
26.35643500,87.01229540,LALITGRAM,LLP,SPJ,BIHAR,D
25.46093380,86.64182150,MAHESHKHUT,MSK,SEE,BIHAR,D
25.65413300,85.50360520,MAHNAR ROAD,MNO,SEE,BIHAR,D
25.88439630,87.43933970,MANANPUR,MNP,DNR,BIHAR,D
26.35485800,85.09631040,MEHASI,MAI,SPJ,BIHAR,D
22.54372930,88.35713890,MOHIUDDINNANGAR,MOG,SEE,BIHAR,D
26.25718990,85.16890720,MOTIPUR,MTR,SPJ,BIHAR,D
24.88693910,85.54874490,NAWADAH,NWD,DNR,BIHAR,D
26.30582270,86.57531180,NIRMALI JN.,NMA,SPJ,BIHAR,D
24.62422750,85.20650510,PAHARPUR,PRP,DHN,BIHAR,D
24.81747370,84.63419230,RAFIGANJ,RFJ,MGS,BIHAR,D
25.61385100,85.19181490,RAGHOPUR,RGV,SPJ,BIHAR,D
25.33372820,84.51674940,RAGHUNATHPUR,RPR,DNR,BIHAR,D
26.40071060,86.15323680,RAJNAGAR,RJA,SPJ,BIHAR,D
25.09607420,85.31311940,RAMGARHAWA,RGH,SPJ,BIHAR,D
25.74634400,86.03394510,RUSERAGHAT,ROA,SPJ,BIHAR,D
25.63917740,85.58140240,SAHPUR PATORI,SPP,SEE,BIHAR,D
25.60338370,86.26005270,SALAUNA,SLNA,SPJ,BIHAR,D
26.34546600,86.07103900,SEMAPUR,SMO,SEE,BIHAR,D
25.13192100,85.85251700,SHEIKHPURA,SHK,DNR,BIHAR,D
25.60330280,85.13713700,SIMRIBAKHTIYARPUR,SBV,SPJ,BIHAR,D
24.88273730,84.23014560,SONNAGAR JN.,SEB,MGS,BIHAR,D
26.11750800,86.60301980,SUPAUL,SOU,SPJ,BIHAR,D
24.62422750,85.20650510,TAREGANA,TEA,DNR,BIHAR,D
25.39338280,86.93552800,THANABIHPUR,THB,SEE,BIHAR,D
25.01653940,85.64282850,WARSALIGANJ,WRS,DNR,BIHAR,D
25.21563330,86.32234540,ABHAIPUR,AHA,MLDT,BIHAR,D
26.34729180,86.07404130,BARIARPUR,BUP,MLDT,BIHAR,D
24.80324130,84.99970720,GHOGHA,GGA,MLDT,BIHAR,D
25.31487430,86.49287680,KAJRA,KJH,MLDT,BIHAR,D
25.23738280,87.26729900,PIRPINTI,PPT,MLDT,BIHAR,D
25.21563330,86.32234540,SHIVNARAYAN PUR,SVRP,MLDT,BIHAR,D
25.20308290,85.53940750,SIMULTALA,STL,ASN,BIHAR,D
25.78590500,84.74583510,CHAPRA KACHERI,CI ,VARANASI,BIHAR,D
25.20308290,85.53940750,EKMA,EM,VARANASI,BIHAR,D
25.09607420,85.31311940,HATHUA,HTW,VARANASI,BIHAR,D
26.43893330,84.39404760,THAWE JN.,THE,VARANASI,BIHAR,D
26.11465690,87.44746950,ARARIYA,ARR,KIR,BIHAR,D
25.55608940,87.85245720,AZAMNAGAR,AZR,KIR,BIHAR,D
25.43986360,87.74437480,LABHA,LAV,KIR,BIHAR,D
25.61564890,87.83732370,SALMARI,SRI,KIR,BIHAR,D
24.62870460,84.28673550,SONAILI,SI,KIR,BIHAR,D
25.11298530,84.98499090,TELTA,TETA,KIR,BIHAR,D
26.43134680,88.12746100,THAKURGANJ,TKG,KIR,BIHAR,D
21.04598710,82.38401260,BAGBAHRA,BGBR,SBP,CHHATTISGARH,D
21.11325900,82.10398500,MAHASAMUND,MSMD,SBP,CHHATTISGARH,D
23.31675700,82.52915900,BAIKUNTHPUR RD,BRH,BSP,CHHATTISGARH,D
21.27865670,81.86614420,BALOD,BXA,R,CHHATTISGARH,D
22.01183510,82.81373370,BARADUAR,BUA,BSP,CHHATTISGARH,D
21.96162170,82.07697240,BELHA,BYL,R,CHHATTISGARH,D
21.20806560,81.37543920,BHILAI,BIA,R,CHHATTISGARH,D
23.17892170,82.98270820,BISHRAMPUR,BSPR,BSP,CHHATTISGARH,D
21.25253900,81.62956100,CHIRIMIRI,CHRM,BSP,CHHATTISGARH,D
20.58791190,81.06848000,DALLIRAJHARA,DRZ,R,CHHATTISGARH,D
20.71512560,81.55076540,DHAMTARI,DTR,R,CHHATTISGARH,D
22.34930450,82.64612840,GEVRA ROAD,GAD,BSP,CHHATTISGARH,D
21.27865670,81.86614420,GUNDERDEHI,GDZ,R,CHHATTISGARH,D
21.63193560,81.84608610,HATHBANDH,HN,R,CHHATTISGARH,D
22.03416550,82.29717050,JAIRAMNAGAR,JRMG,BSP,CHHATTISGARH,D
22.29761400,82.02625200,KARGI ROAD,KGB,BSP,CHHATTISGARH,D
21.36930360,83.07346610,KHARSIA,KHS,BSP,CHHATTISGARH,D
21.27000000,81.52000000,KUMHARI,KMI,R,CHHATTISGARH,D
23.21973090,82.19742140,MANENDRAGARH,MDGR,BSP,CHHATTISGARH,D
22.02318370,82.56523230,NAILA,NIA,BSP,CHHATTISGARH,D
20.96985500,81.86855200,RAJIM JN.,RIM,R,CHHATTISGARH,D
22.01179000,82.95567900,SAKTI,SKT,BSP,CHHATTISGARH,D
21.19989840,81.29152030,USALPUR,USL,BSP,CHHATTISGARH,D
28.74518750,77.13727250,BADLI,BHD,DLI,DELHI,D
28.53690220,77.05120860,BIJWASAN,BWSN,DLI,DELHI,D
28.66715950,77.17134310,DAYA BASTI,DBSI,DLI,DELHI,D
28.70314380,77.17722880,DELHI AZADPUR,DAZ,DLI,DELHI,D
28.66435430,77.20078950,DELHI KISHANGANJ,DKZ,DLI,DELHI,D
28.65881640,77.21698740,DELHI SADAR BAZAR,DSB,DLI,DELHI,D
28.70405920,77.10249020,MANGOLPURI,MGLP,DLI,DELHI,D
28.84646200,77.08557000,NARELA,NUR,DLI,DELHI,D
28.55952070,77.26560480,OKHLA,OKA,DLI,DELHI,D
28.58523330,77.09282940,PALAM,PM,DLI,DELHI,D
28.66022760,77.15675200,PATEL NAGAR,PTNR,DLI,DELHI,D
28.63385050,77.22613010,SHIVAJI BRIDGE,CSB,DLI,DELHI,D
28.62827630,77.23748570,TILAK BRIDGE,TKJ,DLI,DELHI,D
28.50323080,77.29805330,TUGHOAKABAD,TKD,DLI,DELHI,D
28.67330340,77.31828030,VIVEK VIHAR,VVB,DLI,DELHI,D
15.26429820,74.10839650,SANVERDEM CURCHOREM,SVM,UBL,GOA,D
21.70339380,72.99967910,ADIPUR,AI,AHMEDABAD,GUJARAT,D
20.81178200,72.95595950,AMALSAD,AML,MUMBAI CENTRAL,GUJARAT,D
23.11928780,70.03626480,ANJAR,AJE,AHMEDABAD,GUJARAT,D
22.28306060,70.79931020,BHAKTINAGAR,BKNG,RAJKOT,GUJARAT,D
21.92877460,69.78962150,BHANVAD,BNVD,BHAVNAGAR,GUJARAT,D
21.77063660,72.11847230,BHAVNAGAR PARA,BVP,BHAVNAGAR,GUJARAT,D
20.27595690,72.88704140,BHILAD,BLD,MUMBAI CENTRAL,GUJARAT,D
21.15740900,72.95619790,CHALTHAN,CHM,MUMBAI CENTRAL,GUJARAT,D
23.02441600,72.66456600,DEROL,DRL,VADODARA,GUJARAT,D
22.32896000,73.26193200,DHANDHUKA,DCK,BHAVNAGAR,GUJARAT,D
21.82310760,71.73870780,DHOLA JN.,DLJ,BHAVNAGAR,GUJARAT,D
23.04499100,72.64001600,DHRANGANDHRA,DHG,AHMEDABAD,GUJARAT,D
23.02663570,72.56886780,GANDHIGRAM,GG,BHAVNAGAR,GUJARAT,D
23.23491450,72.63023110,GANDHINAGAR,GNC,AHMEDABAD,GUJARAT,D
21.72911010,70.57414410,JETALSAR JN.,JLR,BHAVNAGAR,GUJARAT,D
23.24380000,72.50336100,KALOL,KLL,AHMEDABAD,GUJARAT,D
23.02674710,72.60084980,KESHOD,KSD,BHAVNAGAR,GUJARAT,D
21.20431890,72.84003880,KHAMBALIYA,KMBL,RAJKOT,GUJARAT,D
22.25838100,73.18028300,KHAMBAT,CBY,VADODARA,GUJARAT,D
21.40365360,72.92499160,KIM,KIM,VADODARA,GUJARAT,D
21.46466990,72.95486210,KOSAMBA,KSB,VADODARA,GUJARAT,D
21.20185200,72.83345700,LIMBADI,LM,BHAVNAGAR,GUJARAT,D
22.81897450,72.75237260,MAHEMDAVAD & KHEDA RD.,MHD,VADODARA,GUJARAT,D
21.09433310,71.75687130,MAHUVA,MHV,BHAVNAGAR,GUJARAT,D
21.15997520,70.29936900,MALIA HATINA,MLHA,BHAVNAGAR,GUJARAT,D
23.00001230,72.61026370,MANINANAGAR,MAN,AHMEDABAD,GUJARAT,D
21.19862020,72.83060910,MAROLI,MRL,MUMBAI CENTRAL,GUJARAT,D
21.18399500,72.80690900,MITHAPUR,MTHP,RAJKOT,GUJARAT,D
22.05153720,73.12070430,MIYAMGAM KARJAN,MYG ,VADODARA,GUJARAT,D
21.70904120,73.47253380,MORAVI,MVI,RAJKOT,GUJARAT,D
22.25865200,71.19238050,PALEJ,PLJ,VADODARA,GUJARAT,D
23.85015460,72.12230410,PATAN,PTN,AHMEDABAD,GUJARAT,D
23.07159340,72.58696100,SABARMATI (BG),SBT,AHMEDABAD,GUJARAT,D
23.07159340,72.58696100,SABARMATI (MG),SBI,AHMEDABAD,GUJARAT,D
21.07803100,72.87438700,SACHIN,SCH,MUMBAI CENTRAL,GUJARAT,D
23.30969480,70.50297760,SAMAKHIALI JN.,SIOB,AHMEDABAD,GUJARAT,D
20.76519590,72.97050830,SANJAN,SJN,MUMBAI CENTRAL,GUJARAT,D
22.25865200,71.19238050,SAVARKUNDLA,SVKD,BHAVNAGAR,GUJARAT,D
23.70367970,72.54441280,SIDDHPUR,SID,AHMEDABAD,GUJARAT,D
21.72491910,71.95746520,SIHOR JN.,SOJN,BHAVNAGAR,GUJARAT,D
20.89606380,70.40785100,SOMNATH,SMNH,BHAVNAGAR,GUJARAT,D
22.99771500,72.61039800,SONGADH,SGD,BHAVNAGAR,GUJARAT,D
19.19000190,72.96820180,THAN,THAN,RAJKOT,GUJARAT,D
20.15513400,72.79192600,UMBERGAON,UBR,MUMBAI CENTRAL,GUJARAT,D
22.46567290,70.06022080,UNJA,UJA,AHMEDABAD,GUJARAT,D
23.06844650,70.14766130,VISHVAMITRI JN.(BG),VS,VADODARA,GUJARAT,D
21.70339380,72.99967910,VYARA,VYA,MUMBAI CENTRAL,GUJARAT,D
27.88577200,77.38815600,HODAL,HDL  ,AGC,HARYANA,D
30.37808480,76.76443050,AMBALA CITY,UBC,UMB,HARYANA,D
28.25148550,77.32436580,ASAOTI,AST,DLI,HARYANA,D
28.41282100,77.30540250,BARARA,RAA,UMB,HARYANA,D
30.72717300,76.88695880,CHANDIMANDIR,CNDM,UMB,HARYANA,D
29.13156150,77.01101510,GANAUR,GNU,DLI,HARYANA,D
28.43781170,76.93027570,GARHI HARSARU,GHH,DLI,HARYANA,D
29.70615080,75.90186390,GOHANA,GHNA,DLI,HARYANA,D
30.13542000,77.24232600,JAGADHRI WORKSHOP,JUDW,UMB,HARYANA,D
29.80354800,75.82093100,JAKHAL,JHL,DLI,HARYANA,D
29.11976650,76.39610280,JULANA,JNA,DLI,HARYANA,D
29.79295800,76.39811300,KAITHAL,KLE,DLI,HARYANA,D
28.37660750,77.30955720,NARWANA,NRW,DLI,HARYANA,D
28.34785220,76.75215660,PATAUDI ROAD,PTRD,DLI,HARYANA,D
29.39757600,76.96803420,SAMALKHA,SMK,DLI,HARYANA,D
28.78235300,76.77295500,SAMPLA,SPZ,DLI,HARYANA,D
30.83862360,76.93707350,SHAHBAD MARKANDA,SHDM,DLI,HARYANA,D
29.72671330,75.90268060,TOHANA,TUN,DLI,HARYANA,D
29.23940630,76.54836780,BHATTU,BHT,BIKANER,HARYANA,D
28.60042110,76.27968100,CHARKHIDADRI,CKD,BIKANER,HARYANA,D
28.68381140,77.37272960,ELLENABAD,ENB,BIKANER,HARYANA,D
28.83765000,76.11422000,HANSI,HNS,BIKANER,HARYANA,D
28.83384300,76.38662600,KALANAUR KALAN,KLNK,BIKANER,HARYANA,D
29.69478600,76.96967530,KALANWALI,KNL,BIKANER,HARYANA,D
28.61858200,77.38318700,KOSLI,KSI,BIKANER,HARYANA,D
28.42692730,75.80257170,LOHARU,LHU,BIKANER,HARYANA,D
28.28077250,76.14848330,MAHENDRA GARH,MHRG,BIKANER,HARYANA,D
29.28312840,75.46873840,MANDI ADAMPUR,ADR,BIKANER,HARYANA,D
29.96636130,74.70055550,MANDI DABWALI,MBY,BIKANER,HARYANA,D
28.04460860,76.12331270,NARNAUL,NNL,JAIPUR,HARYANA,D
31.10246770,77.15987960,SHIMLA,SML,UMB,HIMACHAL PRADESH,D
32.87555050,75.30602220,RAMNAGAR,RNJK,FZR,JAMMU & KASHMIR,D
32.52838670,75.12005810,SAMBA,SMBX,FZR,JAMMU & KASHMIR,D
23.84370710,84.11642410,BARWADIH,BRWD,DHN,JHARKHAND,D
23.78644550,85.87925480,BOKARO THERMAL,BKRO,DHN,JHARKHAND,D
23.61018080,85.27993540,GARHWA ,GHQ,DHN,JHARKHAND,D
23.80274640,85.82964320,GOMIA,GMIA,DHN,JHARKHAND,D
24.49719870,83.95032380,HAIDARNAGAR,HDN,MGS,JHARKHAND,D
24.17453490,85.89154780,HAZARIBAGH ROAD,HZD,DHN,JHARKHAND,D
23.51547070,85.41967010,JAPLA,JPL,MGS,JHARKHAND,D
23.61018080,85.27993540,KATRASGARH,KTH,DHN,JHARKHAND,D
23.61018080,85.27993540,KHALARI,KLRE,DHN,JHARKHAND,D
23.72530980,84.46805590,LATEHAR,LTHR,DHN,JHARKHAND,D
24.53652310,83.99963360,MUHAMMADGANJ,MDJ,MGS,JHARKHAND,D
23.61018080,85.27993540,NABINAGAR ROAD,NBG,MGS,JHARKHAND,D
23.61018080,85.27993540,NAGARUNTARI,NUQ,DHN,JHARKHAND,D
23.61018080,85.27993540,PARSABAD,PSB,DHN,JHARKHAND,D
23.61018080,85.27993540,PATRATU,PTRU,DHN,JHARKHAND,D
22.77412650,86.18896680,PHUSRO,PUS,DHN,JHARKHAND,D
23.34947300,85.33565600,RANCHI ROAD,RRME,DHN,JHARKHAND,D
23.81456900,86.34320100,TETULMARI,TET,DHN,JHARKHAND,D
23.68157400,84.73996170,TORI,TORI,DHN,JHARKHAND,D
24.48922230,86.69203010,BAIDYANATHDHAM ,BDME,ASN,JHARKHAND,D
24.18174360,86.31446600,GIRIDIH,GRD,ASN,JHARKHAND,D
23.34947300,85.33565600,JAMTARA,JMT,ASN,JHARKHAND,D
23.79102940,86.42993910,KUMARDHUBI,KMME,ASN,JHARKHAND,D
25.25636310,87.49582660,MIRZACHEWKI,MZC,MLDT,JHARKHAND,D
25.05403800,87.83418700,RAJMAHAL,RJL,MLDT,JHARKHAND,D
24.99671340,87.74349240,TINPAHAR,TPH,MLDT,JHARKHAND,D
24.08299710,86.70437520,VIDYASAGAR,VDS,ASN,JHARKHAND,D
22.78347410,86.15768890,ADITYAPUR,ADTP,CKP,JHARKHAND,D
22.16606270,85.41192200,BARAJAMDA,BJMD,CKP,JHARKHAND,D
23.72351510,86.40586790,BHAGA,VAA,ADA,JHARKHAND,D
22.55931660,85.81186780,CHAIBASA,CBSA,CKP,JHARKHAND,D
22.95580890,86.07154150,CHANDIL,CNI,ADA,JHARKHAND,D
22.58611210,86.47927800,GHATSILA,GTS,KGP,JHARKHAND,D
23.44668930,84.70677270,LOHARDAGA,LAD,RNC,JHARKHAND,D
22.37395570,85.19733820,MANOHARPUR,MOU,CKP,JHARKHAND,D
23.37789900,85.86648300,MURI,MURI,RNC,JHARKHAND,D
23.61018080,85.27993540,NOAMUNDI,NOMD,CKP,JHARKHAND,D
22.73405000,85.81165650,RAJKHARSAWAN,RKSN,CKP,JHARKHAND,D
24.17453490,85.89154780,RAKHAMINES,RHE,KGP,JHARKHAND,D
23.61948460,85.51984420,RAMGARH,RMT,RNC,JHARKHAND,D
24.53725600,84.00288400,SINI,SNY,CKP,JHARKHAND,D
17.34071130,76.58990940,GANGAPUR RD,GUR,SUR,KARNATAKA,D
12.96450520,77.70254570,SHAHABAD,SDB,SUR,KARNATAKA,D
18.04697130,77.22839060,BHALKI                                            ,BHLK,SC        ,KARNATAKA,D
17.08010740,77.05265790,CHITTAPUR                                         ,CT  ,SC        ,KARNATAKA,D
17.14680180,77.17261590,MALKHAID ROAD                                     ,MQR ,SC        ,KARNATAKA,D
16.93613420,77.01944590,NALWAR                                            ,NW  ,GTL,KARNATAKA,D
12.97453650,77.55150800,NARAYANAPET ROAD                                  ,NRPD,GTL,KARNATAKA,D
12.97474900,77.61480900,SEDAM                                             ,SEM ,SC        ,KARNATAKA,D
13.00555630,77.62757000,ALMATTI,LMT,UBL,KARNATAKA,D
15.42436380,74.73800460,ALNAVAR,LWR,UBL,KARNATAKA,D
15.13923150,76.92354030,BADAMI,BDM,UBL,KARNATAKA,D
15.31727750,75.71388840,BAIYAPPANAHALLI,BYPL,SBC,KARNATAKA,D
13.00127000,77.61826010,BANGALORE EAST,BNCE,SBC,KARNATAKA,D
15.62606810,73.86923980,BYADGI,BYD,MYS,KARNATAKA,D
11.93472970,76.93283290,CHAMARAJANAGAR,CMNR,MYS,KARNATAKA,D
12.29811450,76.63779660,CHAMARAJAPURAM,CMJ,MYS,KARNATAKA,D
12.95884500,77.66265000,CHAMPION,CHU,SBC,KARNATAKA,D
12.72332530,77.28332950,CHANNAPATNA,CPT,SBC,KARNATAKA,D
13.07466850,77.50564290,CHIKBANAVAR,BAW,SBC,KARNATAKA,D
14.12379680,76.13989320,CHIKJAJUR,JRU,MYS,KARNATAKA,D
14.23083650,76.38589020,CHITRADURGA,CTA,MYS,KARNATAKA,D
12.97556300,78.25789700,COROMANDEL,COL,SBC,KARNATAKA,D
13.61209110,77.51264620,GAURIBIDANAUR,GBD,SBC,KARNATAKA,D
13.05772460,77.58844260,GHATPRABHA,GPB,UBL,KARNATAKA,D
16.20525910,74.73914760,GOKAK ROAD,GKK,UBL,KARNATAKA,D
12.78536170,76.24663260,HOLENARSIPUR,HLN,MYS,KARNATAKA,D
17.21127070,75.91955890,INDI ROAD,IDR,UBL,KARNATAKA,D
12.76870530,75.20467810,KABAKAPUTTUR,KBPR,MYS,KARNATAKA,D
13.55032750,76.00862660,KADUR,DRU,MYS,KARNATAKA,D
12.90750380,77.70574800,KARMELARUM,CRLM,SBC,KARNATAKA,D
12.44520050,76.38841690,KRISHNANARAJANAGAR,KRNR,MYS,KARNATAKA,D
15.44762160,74.98309760,KUDACHI,KUD,UBL,KARNATAKA,D
12.57193100,77.01196600,MADDUR,MAD,SBC,KARNATAKA,D
13.00038400,77.56361310,MALLESWARAM,MWM ,SBC,KARNATAKA,D
12.99287040,77.93898640,MALUR,MLO,SBC,KARNATAKA,D
15.30859160,76.33532660,MUNIRABAD,MRB,UBL,KARNATAKA,D
12.12206530,76.68423330,NANJANGUD TOWN,NTW,MYS,KARNATAKA,D
12.97812890,77.56956780,NAYANDAHALLI,NYH,SBC,KARNATAKA,D
13.30767100,75.76824860,OORGAUM,OGM,SBC,KARNATAKA,D
12.46531250,76.68119330,PANDAVAPURA,PANP,SBC,KARNATAKA,D
12.72102960,77.28364170,RAMANAGARAM,RMGM,SBC,KARNATAKA,D
14.62576760,75.63570350,RANIBENNUR,RNR,MYS,KARNATAKA,D
12.93867390,77.57939950,RAYADURG,RDG,UBL,KARNATAKA,D
13.14644650,78.25535690,RAYBAGH,RBG,UBL,KARNATAKA,D
12.42481050,76.67821880,SRIRANGAPATNA,S,SBC,KARNATAKA,D
